city_name,latitude,longitude,total_pop
Warsaw,52.2333,21.0167,1793579
Szymiszów,50.5203,18.2458,1300720
Łódź,51.7769,19.4547,679941
Wrocław,51.11,17.0325,643782
Poznań,52.4083,16.9336,534813
,54.3667,18.6333,470907
Gdańsk,54.3667,18.6333,470907
Szczecin,53.4325,14.5481,401907
Bydgoszcz,53.1219,18.0003,348190
Lublin,51.2481,22.5703,339784
Białystok,53.1353,23.1456,296958
Katowice,50.2583,19.0275,292774
Gdynia,54.5,18.5333,246348
Gdynia,54.5,18.55,246348
Częstochowa,50.8,19.1167,220433
Radom,51.4036,21.1567,211371
Toruń,53.0222,18.6111,201447
Fabryczna borough,51.1191,16.9262,196912
Industrial borough,51.1191,16.9262,196912
Rzeszów,50.0333,22.0,196208
Kielce,50.8742,20.6333,194852
Gliwice,50.2833,18.6667,178603
Zabrze,50.3025,18.7781,172360
Olsztyn,53.7778,20.4792,171979
Bielsko-Biała,49.8225,19.0444,170663
Bytom,50.3483,18.9156,165263
Zielona Góra,51.9333,15.5,141222
Rybnik,50.0833,18.55,138098
Ruda Śląska,50.2628,18.8536,137360
Opole,50.6667,17.9333,128035
Tychy,50.1236,18.9867,127590
Gorzów Wielkopolski,52.7333,15.25,123341
Płock,52.55,19.7,119425
(Princely Capital City of Płock),52.55,19.7,119425
Dąbrowa Górnicza,50.3214,19.1872,119373
Elbląg,54.1667,19.4,119317
Śródmieście borough,51.113,17.0801,117492
Wałbrzych,50.7667,16.2833,111356
Tarnów,50.0125,20.9886,108470
Chorzów,50.3,18.95,107807
Koszalin,54.2,16.1833,107048
Kalisz,51.7575,18.08,100246
Siecie,54.6244,17.2303,100000
Grudziądz,53.4925,18.7761,95045
Jaworzno,50.2044,19.27,91563
Słupsk,54.4658,17.0292,91007
Jastrzębie-Zdrój,49.95,18.5833,89128
Jelenia Góra,50.9033,15.7344,79480
Mysłowice,50.2333,19.1333,74586
Konin,52.2167,18.2667,74151
Piotrków Trybunalski,51.4,19.6833,73090
Inowrocław,52.7931,18.2611,72561
Ostrów Wielkopolski,51.6494,17.8164,71931
Stargard,53.3333,15.0333,70534
Royal Capital City of Gniezno,52.5333,17.6,68943
Gniezno,52.5333,17.6,68943
Busko,50.4667,20.7167,67821
Siemianowice Śląskie,50.2758,18.9858,66963
Chełm,51.1322,23.4778,63949
Zamość,50.7167,23.2528,63511
Łomża,53.1764,22.0731,62779
Gant,53.7167,21.2,60889
Przemyśl,49.7833,22.7667,60442
Mielec,50.2833,21.4333,60229
Stalowa Wola,50.5833,22.05,60179
Pruszków,52.1667,20.8,60068
Biała Podlaska,52.0333,23.1167,59280
Świdnica,50.85,16.4833,57041
Będzin,50.3333,19.1167,56624
Piekary Śląskie,50.3833,18.95,55088
Świętochłowice,50.2919,18.9178,49762
Zawiercie,50.5,19.4167,49334
Rumia,54.5667,18.4,49230
Puławy,51.4167,21.9667,47417
Tarnobrzeg,50.5833,21.6833,47387
Dębica,50.05,21.4167,47234
Kołobrzeg,54.1667,15.5667,46830
Świnoujście,53.9167,14.25,41516
Szczecinek,53.7167,16.6833,40211
Świdnik,51.2167,22.7,40040
Sochaczew,52.2333,20.2333,37306
Sopot,54.4333,18.55,37089
Szwederowo district,53.1139,17.9931,32760
Łuków,51.9272,22.3833,30564
Augustów,53.8436,22.9775,30190
Gorlice,49.65,21.1667,29500
Marki,52.3333,21.1,29032
Ropczyce,50.0861,21.6333,26059
Wieliczka,49.9894,20.0661,23395
Wieluń,51.2206,18.57,22973
Olecko,54.0333,22.5,22384
Komorniki,52.3361,16.8069,20000
Wadowice,49.8833,19.5,19149
Międzyrzec Podlaski,51.9833,22.7833,17102
Kolbudy,54.2708,18.4722,16826
Łomianki,52.3333,20.8833,16374
Przeworsk,50.0667,22.5,15747
Staszów,50.5633,21.1717,15517
Syry,51.4333,22.4,14039
Złocieniec,53.5269,16.0122,13377
Izabelin,52.3,20.8167,12500
Myślibórz,52.9333,14.8667,11867
Koziegłowy,52.4333,16.9833,10755
Bystrzyca Kłodzka,50.3,16.65,10134
Opatówek,51.7333,18.2333,10000
Pawłowice,49.9628,18.7181,9929
Wola,50.0167,19.1333,9500
Mroczno,53.3531,19.7028,9001
Połaniec,50.4331,21.2803,8406
Baboszewo,52.6814,20.2583,8000
Strzegowo,52.9,20.2833,8000
Radgoszcz,50.205,21.1131,7600
Jabłonna,52.3781,20.9164,7365
Przywózki,52.3667,22.2,7203
Gorzyce,50.6667,21.85,7116
Bolszewo,54.6242,18.1753,7064
Luzino,54.5628,18.1031,6985
Łodygowice,49.7167,19.1333,6925
Słopnice,49.7,20.35,6814
Raszyn,52.1589,20.9264,6700
Jawiszowice,49.9589,19.1389,6700
Żukowo,54.3458,18.3606,6688
Skórzewo,52.3833,16.8,6635
Wilkowice,49.75,19.1,6496
Wyry,50.1333,18.9167,6400
Wartkowice,51.9833,19.0167,6329
Osiek,49.9492,19.2658,6300
Goczałkowice-Zdrój,49.9333,18.9667,6245
Jaworze,49.8061,18.9422,6195
Brenna,49.7262,18.9057,6134
Rakszawa,50.15,22.25,6100
Łabowa,49.5275,20.8553,6005
Korczyna,49.7222,21.8178,6000
Przeźmierowo,52.4333,16.7167,5965
Klucze,50.3406,19.5628,5926
Wołczyn,51.0183,18.0569,5907
Plewiska,52.3664,16.8089,5867
Sułoszowa,50.2667,19.7,5800
Kleosin,53.0931,23.1181,5700
Chełm Śląski,50.1094,19.1933,5646
Głogówek,50.3439,17.8672,5592
Pustków,50.1403,21.4889,5588
Białe Błota,53.0989,17.9161,5575
Ornontowice,50.1833,18.7667,5556
Czaniec,49.8503,19.2528,5536
Chocznia,49.8833,19.45,5510
Czerwonak,52.4697,16.9808,5432
Szczebrzeszyn,50.7,22.9667,5299
Szczebrzeszyn,50.7,22.9833,5299
Szczebrzeszyn,50.6833,22.9667,5299
Szczebrzeszyn,50.6833,22.9833,5299
Gościcino,54.6044,18.1553,5278
Jasienica,49.8128,18.9206,5242
Małkinia Górna,52.6936,22.0506,5200
Jeżowe,50.3753,22.1433,5200
Marklowice,50.0183,18.5247,5180
Szczytna,50.4167,16.4333,5141
Żołynia,50.1786,22.3242,5106
Mysłakowice,50.85,15.7833,5100
Stryszawa,49.7167,19.5167,5100
Istebna,49.5641,18.8933,5078
Zebrzydowice,49.8754,18.6178,5046
Ludwin,51.3333,22.9,5041
Wieprz,49.8894,19.365,5002
Siepraw,49.9167,19.9833,5000
Radziechowy,49.6467,19.1258,5000
Krzemieniewo,51.85,16.8167,5000
Niemce,51.3592,22.63,5000
Strzałkowo,52.31,17.8181,4953
Pcim,49.75,19.9667,4900
Sękowa,49.6,21.2,4889
Budzyń,52.8894,16.9886,4861
Sułkowice,49.8261,19.3592,4835
Rędziny,50.8581,19.2142,4753
Jabłoń-Dąbrowa,52.9117,22.6986,4736
Moszczenica,49.7214,21.1089,4706
Kobiór,50.0603,18.9394,4702
Żurawica,49.8217,22.7978,4702
Pisarzowice,49.8833,19.1333,4673
Bulowice,49.8333,19.25,4664
Bestwina,49.8964,19.0594,4618
Komorów,52.1444,20.8153,4570
Koszęcin,50.6333,18.8333,4563
Iwonicz,49.6078,21.8044,4509
Kleszczów,51.2228,19.3042,4500
Gdów,49.9072,20.1986,4500
Dobrzeń Wielki,50.7667,17.8667,4500
Ligota,49.8806,18.9483,4454
Jabłonka,49.48,19.6933,4400
Zabierzów,50.1181,19.7797,4400
Tarnowo Podgórne,52.4667,16.6667,4397
Cięcina,49.6,19.1333,4373
Suchy Las,52.4753,16.8825,4367
Chotomów,52.4167,20.8833,4349
Lipowa,49.6789,19.1039,4322
Milówka,49.5631,19.0875,4300
Witaszyce,51.9333,17.5667,4300
Humniska,49.6667,22.0667,4300
Zebrzydowice,49.9,19.6333,4300
Kazimierz Biskupi,52.3081,18.1617,4280
Pietrzykowice,49.6833,19.15,4279
Goleszów,49.7357,18.7398,4276
Szamocin,53.0303,17.1206,4267
Węgierska Górka,49.6078,19.1167,4206
Kamieniec Ząbkowicki,50.5264,16.8781,4200
Biały Dunajec,49.3744,20.0089,4200
Suszec,50.0333,18.8,4130
Raba Wyżna,49.5667,19.9,4116
Buczkowice,49.7281,19.0694,4102
Rybie,52.1536,20.9433,4100
Markowa,50.0203,22.3003,4100
Przecław,53.3761,14.4722,4100
Jodłowa,49.8667,21.3,4100
Bratkowice,50.1167,21.8667,4100
Nakło Śląskie,50.4358,18.9056,4100
Jeleśnia,49.6417,19.3269,4098
Giedlarowa,50.2167,22.4,4096
Szczucin,50.3,21.0667,4069
Pszczółki,54.1725,18.6981,4053
Kadzidło,53.2331,21.4667,4032
Kamienica,49.5667,20.3333,4000
Przysietnica,49.73,22.0511,4000
Małaszewicze,52.0167,23.5167,4000
Celestynów,52.05,21.3833,4000
Czyżew Kościelny,52.8,22.3167,4000
Gawłów,52.2583,20.2542,4000
Osiek nad Notecią,53.1167,17.3,4000
Baniocha,52.0206,21.1303,4000
Skawa,49.6167,19.9,4000
Poraj,50.6789,19.2161,4000
Przeciszów,50.0167,19.3833,3996
Wielopole Skrzyńskie,49.95,21.6167,3982
Strzebiń,50.6,18.8833,3951
Górki Wielkie,49.7728,18.854,3950
Płaza,50.1,19.4667,3900
Jankowice Rybnickie,50.0333,18.55,3900
Kościelisko,49.2908,19.8883,3900
Chybie,49.8949,18.8133,3900
Świerklany Górne,50.0167,18.5833,3900
Hyżne,49.9333,22.1833,3900
Poronin,49.3444,20.0064,3900
Bystra,49.7619,19.0722,3887
Targanice,49.8167,19.3167,3860
Porąbka,49.8,19.2167,3852
Sarzyna,50.35,22.35,3837
Polanka Wielka,49.9833,19.3167,3800
Tarnów Opolski,50.5833,18.0833,3800
Wola Żarczycka,50.3,22.25,3793
Banie Mazurskie,54.2383,22.0392,3770
Nowa Iwiczna,52.0833,21.0,3755
Gierałtowice,50.2167,18.7167,3752
Mazańcowice,49.8571,18.9793,3745
Roczyny,49.85,19.3167,3728
Stara Wieś,49.6833,20.4008,3715
Krościenko Wyżne,49.6811,21.8169,3700
Ropa,49.6,21.05,3700
Lubatowa,49.5492,21.7586,3700
Besko,49.5833,21.95,3700
Czemierniki,51.6731,22.6317,3700
Jedlnia-Letnisko,51.4297,21.3344,3692
Koniaków,49.5517,18.9408,3643
Lubomia,50.0333,18.3,3600
Świerklaniec,50.4333,18.95,3600
Pogwizdów,49.8044,18.6015,3571
Mnich,49.8839,18.8068,3569
Mszana,49.9692,18.5156,3559
Krościenko nad Dunajcem,49.4375,20.4297,3552
Jejkowice,50.1069,18.4678,3540
Osobnica,49.7,21.4167,3536
Wieprz,49.6381,19.1744,3535
Pruchnik,49.9167,22.5167,3519
Czarny Dunajec,49.4394,19.8542,3501
Kasinka Mała,49.7167,20.0333,3500
Krasne,50.0492,22.0906,3500
Leszno,52.2667,20.6,3500
Stróże,49.64,20.98,3500
Tarnowiec,49.9811,20.9858,3500
Tworóg,50.5333,18.7,3500
Krokowa,54.7806,18.1597,3500
Himmelwitz,50.5442,18.3806,3500
Jemielnica,50.5442,18.3806,3500
Kosina,50.0667,22.3167,3500
Żarki,50.0831,19.35,3500
Stara Wieś,49.7194,22.0142,3500
Rytro,49.49,20.6678,3500
Jugów,50.6342,16.5117,3500
Osielsko,53.1833,18.0667,3482
Chmielnik,49.9739,22.1456,3466
Rybarzowice,49.7292,19.1044,3448
Zalasewo,52.3833,17.0833,3445
Mrozy,52.1661,21.8022,3440
Rajcza,49.5069,19.1075,3438
Kotlin,51.91,17.65,3416
Balin,50.1656,19.39,3400
Gostyń,50.1033,18.8828,3400
Lubicz Górny,53.0167,18.7667,3400
Miłoradz,54.0142,18.9181,3397
Konin,51.6836,15.695,3390
Haczów,49.6644,21.9014,3370
Andrespol,51.7244,19.6378,3367
Bełk,50.1308,18.71,3358
Kobiernice,49.85,19.2167,3345
Gołkowice,49.9122,18.5031,3345
Nędza,50.15,18.3,3344
Michałowo,53.0367,23.6036,3343
Gorzkowice,51.2167,19.6,3310
Rybna,50.0511,19.6472,3300
Świerklany Dolne,50.0167,18.5833,3300
Przerośl,54.2519,22.6561,3300
Szczerców,51.3333,19.1167,3300
Skrzyszów,49.9928,21.0628,3300
Niedrzwica Duża,51.1133,22.3867,3300
Garbatka-Letnisko,51.4933,21.6319,3295
Kończyce Małe,49.8479,18.6314,3294
Godów,49.925,18.4783,3280
Skrzyszów,49.9478,18.4917,3280
Tenczynek,50.1167,19.6167,3275
Nowa Wieś,49.9067,19.2175,3272
El Banino,54.3933,18.4083,3267
Zblewo,53.9347,18.3294,3263
Lepsze,52.7431,18.6647,3256
Dobrzyca,51.865,17.6019,3250
Męcina,49.6786,20.5472,3248
Libusza,49.6833,21.2667,3240
Nieporęt,52.4244,21.0336,3239
Dębnica Kaszubska,54.3739,17.1606,3220
Bojszowy,50.05,19.1,3219
Turka,51.2833,22.6667,3214
Cisiec,49.5833,19.1,3214
Inwałd,49.8639,19.3978,3202
Brzóza Królewska,50.25,22.3333,3200
Lubień,49.7333,19.9833,3200
Sidzina,49.6087,19.7259,3200
Piekoszów,50.8817,20.4617,3200
Kłaj,49.9833,20.3,3200
Przyszowice,50.25,18.75,3199
Nadarzyn,52.0939,20.8053,3198
Jaworzynka,49.5291,18.8597,3196
Mielno,54.26,16.0608,3174
Mielno,54.26,16.0608,3174
Międzybrodzie Bialskie,49.7833,19.1833,3154
Brzoza,53.0311,18.0089,3149
Aleksandrów,50.4644,22.9061,3135
Laskowa,49.7628,20.4522,3133
Jasienica,52.4,21.3833,3133
Wieliszew,52.45,20.9667,3122
Łużna,49.7125,21.0506,3120
Czarnowanz,50.7167,17.9,3108
Czarnowąsy,50.7167,17.9,3108
Zabrzeg,49.9144,18.9456,3107
Malczyce,51.2206,16.4936,3100
Dobra,49.7139,20.2528,3100
Tokarnia,49.7311,19.8836,3100
Wolica Piaskowa,50.0833,21.7167,3100
Domaradz,49.7869,21.9467,3100
Werbkowice,50.75,23.7667,3098
Szówsko,50.05,22.7167,3096
Turza Śląska,49.9833,18.4333,3094
Jeleniewo,54.2058,22.9128,3092
Trzebownisko,50.0833,22.05,3082
Syrynia,50.0167,18.35,3074
Szymbark,49.6192,21.0969,3067
Kurzętnik,53.3992,19.5769,3065
Rzyki,49.8167,19.3833,3052
Piaski,51.8853,17.0742,3040
Rudzica,49.8547,18.8877,3036
Lisia Góra,50.0867,21.0211,3019
,50.7567,22.1017,3010
Zaklików,50.7567,22.1017,3010
Zaklików,50.7567,22.1017,3010
Kaczyce,49.8343,18.5917,3008
Ptaszkowa,49.6019,20.8858,3004
Lututów,51.3719,18.4336,3000
Tworków,50.0,18.2333,3000
Kozłowo,53.3067,20.2878,3000
Ksawerów,51.6822,19.4028,3000
Rudnik,49.8519,19.8539,3000
Szynwałd,49.9414,21.1181,3000
Jagodniki,52.7,23.5,3000
Trzęsówka,50.2833,21.6833,3000
Prostki,53.6989,22.4328,3000
Przygodzice,51.5833,17.8333,3000
Wola Batorska,50.0667,20.2667,3000
Czyżowice,49.9833,18.4053,3000
Bielany Wrocławskie,51.0333,16.9667,3000
Bojano,54.4731,18.3844,3000
Lubcza,49.9,21.2667,3000
Jedlnia,51.45,21.35,3000
Krępa Słupska,54.4172,17.0572,3000
Cmolas,50.3,21.75,3000
Dziergowice,50.2383,18.2853,3000
Mysiadło,52.0978,21.0189,3000
Nagawczyna,50.05,21.45,3000
Chobienice,52.1667,15.9333,3000
Chróścice,50.7781,17.8128,3000
Grabownica Starzeńska,49.6667,22.0833,3000
Smętowo Graniczne,53.745,18.6842,3000
Grzęska,50.0667,22.4667,3000
Smolec,51.0833,16.8833,3000
Słońsk,52.5628,14.8061,3000
Święcany,49.7667,21.2833,3000
Wierzchosławice,50.0202,20.853,3000
Osielec,49.6833,19.7667,3000
Świlcza,50.0667,21.9167,3000
Staniątki,50.0167,20.2,3000
Sztutowo,54.3167,19.1833,2988
Piechcin,52.8203,18.0397,2987
Bukowina Tatrzańska,49.35,20.1167,2976
Zaczernie,50.1,22.0167,2965
Zagórze,50.0947,19.4039,2963
Włoszakowice,51.9333,16.3667,2960
Krosnowice,50.3869,16.6333,2954
Wielbark,53.3978,20.9461,2943
Wielbark,53.3978,20.9461,2943
Niemcz,53.1833,18.0333,2940
Bobrowniki,50.38,18.9947,2926
Kaniów,49.9333,19.0333,2926
Niechobrz,49.9814,21.8669,2926
Kamionka Wielka,49.5775,20.7861,2925
Pilchowice,50.2153,18.5611,2919
Ryjewo,53.8442,18.9606,2914
Rogów,49.9897,18.3514,2905
Konopiska,50.7256,19.0083,2901
Czudec,49.9456,21.8381,2900
Zembrzyce,49.7833,19.6,2900
Borzęcin,50.0758,20.7056,2900
Bystra Podhalańska,49.6333,19.7667,2900
Piasek,50.0167,18.95,2900
Stróża,49.7936,19.9097,2900
Albigowa,50.0167,22.2333,2900
Gródek,53.0967,23.6567,2900
Comprachtschütz,50.6358,17.8233,2900
Komprachcice,50.6358,17.8233,2900
Odrzykoń,49.75,21.75,2900
Lipnica Mała,49.5108,19.6372,2900
Łagiewniki,50.7911,16.8442,2900
Trawniki,51.1319,23.0025,2893
Malawa,50.0306,22.0997,2850
Łęgowo,54.2258,18.6425,2850
Sonina,50.0622,22.27,2836
Przechlewo,53.8003,17.2531,2826
Jawornik,49.8603,19.895,2822
Kamesznica,49.5647,19.0206,2806
Kłomnice,50.9167,19.35,2802
Radłów,50.0833,20.85,2800
Iłowo-Osada,53.1669,20.2931,2800
Brzeźnica,50.1006,21.4814,2800
Psary,50.3797,19.1139,2800
Rudy,50.1833,18.45,2800
Medyka,49.8042,22.9319,2800
Radziszów,49.9333,19.8167,2800
Blizne,49.7511,21.9747,2800
Łambinowice,50.5333,17.55,2800
Głogoczów,49.8969,19.8758,2800
Łętownia,49.8308,19.8703,2800
Kasina Wielka,49.7211,20.1386,2800
Niewiadów,51.6178,19.9086,2800
Mirostowice Dolne,51.5667,15.15,2800
Frydrychowice,49.9167,19.4333,2799
Skopanie,50.4667,21.5667,2796
Boronów,50.6667,18.9,2793
Międzylesie,52.8133,17.4628,2766
Rogoźnik,50.3895,19.0415,2753
Czernikowo,52.95,18.9333,2752
Kwilcz,52.5536,16.0847,2746
Kaczory,53.1,16.8833,2743
Sławatycze,51.75,23.55,2738
Dopiewo,52.3667,16.6833,2733
Chorzelów,50.35,21.45,2728
Pustków Osiedle,50.115,21.5128,2727
Kurów,51.4,22.1833,2725
Wręczyca Wielka,50.8458,18.9211,2718
Grębocin,53.05,18.7167,2718
Kłodawa,52.7914,15.2158,2700
Tymbark,49.7272,20.3256,2700
Horyniec-Zdrój,50.1906,23.3619,2700
Janów Podlaski,52.1958,23.2106,2700
Skomielna Biała,49.65,19.9167,2700
Skarżysko Kościelne,51.1375,20.9142,2700
Łącko,49.5583,20.435,2700
Kamień,50.3236,22.1381,2700
Mokrzyska,50.0056,20.6214,2700
Osięciny,52.6333,18.7167,2700
Iwkowa,49.8167,20.5667,2699
Michałowice,52.17,20.8833,2699
Dankowice,49.9297,19.1103,2698
Jankowice,50.0014,18.9883,2697
Kiełpino,54.29,18.225,2693
Łąka,49.9667,18.9167,2690
Chwaszczyno,54.4436,18.4192,2678
Mierzęcice,50.4442,19.1286,2676
Milejów,51.2275,22.9272,2676
Majdan Królewski,50.3833,21.75,2671
Czyżew,52.7958,22.3292,2670
Białowieża,52.7,23.8667,2670
Chełmiec,49.6292,20.6672,2657
Międzyrzecze Górne,49.8417,18.94,2652
Boby-Księże,51.04,22.0369,2644
Święciechowa,51.85,16.5,2640
Wola Filipowska,50.1333,19.5833,2636
Wieszowa,50.4,18.7667,2630
Długołęka,51.1747,17.1953,2620
Milejów-Osada,51.2239,22.9289,2613
Piecki,53.7481,21.3411,2610
Młoszowa,50.15,19.5,2610
Łukowa,50.3794,22.9142,2603
Bielsk,52.6714,19.8047,2600
Skawica,49.6781,19.6278,2600
Białośliwie,53.1,17.1333,2600
Długie,49.5767,22.0456,2600
Zaboryszki,54.2333,23.1,2600
Tylmanowa,49.5167,20.4167,2600
Śliwice,53.7114,18.1772,2600
Zgłobice,49.9833,20.9167,2598
Brzostek,49.8822,21.4072,2597
Mszana Górna,49.6589,20.1042,2589
Moszczenica,51.5,19.7167,2571
Głuchowo,52.3467,16.77,2560
Koszyce Wielkie,49.98,20.9442,2560
Rybno,53.3667,19.9167,2558
Góra,49.9736,19.1094,2554
Żernica,50.2333,18.6,2549
Białka,49.6917,19.6694,2542
Osiedle-Nowiny,50.8169,20.55,2542
Ludwikowice Kłodzkie,50.6178,16.4783,2540
Koszarawa,49.6494,19.4036,2538
Koźmice Wielkie,49.9472,20.0347,2522
Osie,53.5983,18.3436,2520
Juszczyn,49.6944,19.6944,2511
Grzechynia,49.7169,19.66,2503
Tychowo,53.9303,16.2608,2500
Kościelna Wieś,51.7856,18.0094,2500
Laskowice,53.4858,18.4483,2500
Rzeszotary,49.9444,19.9775,2500
Gardeja,53.6072,18.9411,2500
Rzezawa,49.9833,20.5167,2500
Bodzanów,49.9833,20.15,2500
Bolesław,50.2983,19.4719,2500
Teresin,52.2017,20.4178,2500
Nienadowa,49.8319,22.4325,2500
Trzebież,53.6564,14.5083,2500
Brody,49.8658,19.6975,2500
Damasławek,52.8333,17.5167,2500
Poręba Spytkowska,49.9419,20.5478,2500
Gaszowice,50.1089,18.4308,2500
Kopytowa,49.6667,21.6167,2500
Łubiana,54.1,17.8667,2500
Siedliska,49.8667,21.0,2500
Żędowice,50.5667,18.5,2500
Duczki,52.3667,21.2833,2500
Owińska,52.5,16.9667,2500
Ołdrzychowice Kłodzkie,50.35,16.7333,2500
Postoliska,52.45,21.4667,2500
Rogi,49.6139,21.7589,2500
Gorzyce,49.9594,18.3981,2487
Wiśniowa Góra,51.7167,19.6333,2485
Czarna,50.0583,21.2467,2474
Krynki,53.2656,23.7722,2470
Szalowa,49.6822,21.0231,2468
Książenice,50.1539,18.5992,2466
Zaborze,50.0131,19.235,2464
Hażlach,49.804,18.6638,2460
Pruchna,49.8653,18.6825,2442
Waksmund,49.4833,20.0833,2439
Świniarsko,49.605,20.6533,2416
Szepietowo,52.8697,22.5464,2412
Tuszyma,50.2,21.5167,2405
Pietrowice Wielkie,50.0833,18.0833,2400
Wysoka,50.0447,22.2533,2400
Budzów,49.7778,19.6756,2400
Ścinawka Średnia,50.5167,16.4833,2400
Lipinki,49.6792,21.3,2400
Gorzów,50.0667,19.2333,2400
Kowale Oleckie,54.1631,22.4164,2400
Przytoczna,52.5667,15.6667,2400
Lubenia,49.9331,21.9214,2400
Złotniki Kujawskie,52.9,18.1333,2400
Doruchów,51.4167,18.0833,2400
Ćwiklice,49.9833,18.9833,2400
Pielgrzymowice,49.9064,18.6639,2395
Ujsoły,49.4667,19.1333,2392
Człopa,53.0833,16.1333,2390
Mordarka,49.6972,20.4631,2387
Maniowy,49.4597,20.2692,2380
Dobroszyce,51.2647,17.3392,2376
Pudliszki,51.7667,16.9333,2360
Jastkowice,50.6039,22.1067,2350
Herby,50.7528,18.8875,2350
Justynów,51.7206,19.6761,2349
Łaszczów,50.5333,23.7333,2341
Walim,50.6981,16.445,2340
Wolbórz,51.5008,19.8322,2339
Zbrosławice,50.4167,18.75,2338
Stegna,54.3264,19.1122,2337
Gościno,54.0536,15.6506,2332
Olsztyn,50.7519,19.2678,2331
Radwanice,51.0583,17.1039,2328
Pinczyn,53.9622,18.3464,2325
Rajbrot,49.8333,20.4833,2320
Hecznarowice,49.9,19.1667,2316
Żelistrzewo,54.6772,18.4194,2303
Rosnowo,54.0731,16.2925,2300
Paterek,53.1167,17.6167,2300
Połomia,49.99,18.5553,2300
Pruszcz,53.3294,18.1986,2300
Wydminy,53.9833,22.0333,2300
Bodaczów,50.7167,23.05,2300
Branice,50.0514,17.7947,2300
Dywity,53.85,20.4833,2300
Trzciana,50.0722,21.8372,2300
Ząb,49.3361,19.9475,2300
Lubiąż,51.2667,16.4833,2300
Zagórzany,49.6992,21.1572,2300
Niechanowo,52.4639,17.6803,2300
Padew Narodowa,50.4333,21.5,2300
Paniówki,50.2333,18.7667,2297
Przystajń,50.8842,18.6911,2283
Kaliska,53.905,18.2183,2268
Wola Baranowska,50.45,21.5667,2266
Stanowice,50.1306,18.6725,2254
Targowiska,49.6333,21.8333,2250
Kobylnica,54.4417,17.0003,2248
Godziszów,50.7525,22.485,2242
Ustronie Morskie,54.2167,15.75,2241
Gołąb,51.4869,21.8753,2227
Łukowica,49.6167,20.4833,2220
Wysoka Głogowska,50.1503,22.0164,2213
Mrzezino,54.6522,18.4169,2210
Nowa Wieś Wielka,52.9703,18.0914,2207
Godziszka,49.7131,19.0819,2207
Gniewczyna Łańcucka,50.1167,22.4833,2203
Baranowo,52.4378,16.7911,2202
Widełka,50.2,21.8833,2200
Zaniemyśl,52.15,17.1667,2200
Białka Tatrzańska,49.3947,20.105,2200
Stężyca,54.2053,17.9492,2200
Trzemeśnia,49.7333,19.9833,2200
Biała Niżna,49.6333,20.9833,2200
Białobrzegi,50.1014,22.3236,2200
Biedrusko,52.5333,16.9333,2200
Szaflary,49.4333,20.0333,2200
Lipka,53.4972,17.2508,2200
Jasień,49.9694,20.5708,2200
Krzątka,50.4,21.85,2200
Lachowice,49.7167,19.5,2200
Raniżów,50.2667,21.9833,2200
Sobolew,51.7397,21.6686,2200
Stanisławów,52.2833,21.55,2200
Stryszów,49.8333,19.6167,2200
Golcowa,49.7833,22.0333,2200
Lutcza,49.8033,21.9094,2200
Słubice,52.3689,19.9372,2200
Karsin,53.905,17.9283,2200
Mogilany,49.9383,19.8919,2200
Podwilk,49.55,19.7333,2200
Klecza Dolna,49.8708,19.5483,2188
Końskowola,51.4167,22.05,2188
Nowa Wieś Lęborska,54.5575,17.7269,2188
Tomice,49.9011,19.4858,2185
Harta,49.8667,22.2,2179
Bujaków,49.85,19.1833,2176
Łękawica,49.7,19.25,2169
Studzionka,49.9611,18.775,2150
Jaroszów,50.9881,16.4169,2150
Gromadka,51.36,15.7589,2150
Górno,50.25,22.1714,2142
Trąbki,51.95,21.6,2141
Witkowice,49.9139,19.2792,2136
Aleksandria,50.7333,18.95,2131
Piątek,52.0692,19.4806,2130
Lelów,50.6825,19.6253,2127
Drogomyśl,49.8693,18.7567,2121
Koczała,53.9022,17.0664,2111
Rimjhim the water park,52.1458,21.7356,2109
Lusówko,52.4333,16.65,2108
Filipowice,50.1536,19.5664,2104
Krzyżanowice,50.0,18.2667,2100
Kąkolewo,51.8675,16.6958,2100
Laski,52.3,20.85,2100
Raczki,53.9833,22.7833,2100
Radwanice,51.5667,15.9333,2100
Poręba Wielka,49.6106,20.0625,2100
Potulice,53.1167,17.6833,2100
Ochotnica Dolna,49.5333,20.3167,2100
Ochotnica Górna,49.5167,20.25,2100
Szczawa,49.6069,20.2975,2100
Brzezinka,50.0447,19.1814,2100
Czernica,50.0753,18.3997,2100
Walce,50.3719,18.0058,2100
Janowice Wielkie,50.8833,15.9167,2100
Adamów,51.75,22.25,2100
Duszniki,52.45,16.4,2100
Jasienica Rosielna,49.7519,21.9436,2100
Ustanów,52.0,21.0667,2100
Nowe Piekuty,52.8558,22.7089,2100
Dwikozy,50.7322,21.7864,2100
Naprawa,49.6633,19.8769,2100
Wola Krzysztoporska,51.3431,19.5775,2100
Chmielów,50.5167,21.6667,2100
Gnojnica,50.0333,21.65,2100
Godowa,49.8522,21.7986,2100
Ludźmierz,49.4694,19.9789,2100
Wiry,52.3225,16.8508,2100
Mirzec,51.1344,21.0564,2100
Niebieszczany,49.5067,22.1537,2100
Warlubie,53.5833,18.6167,2100
Stare Kurowo,52.85,15.65,2100
Wysoka Strzyżowska,49.8333,21.75,2099
Góra Puławska,51.4,21.9167,2098
Kobierzyce,50.9667,16.9167,2095
Leśna,49.67,19.1328,2093
Bożepole Wielkie,54.5758,17.9689,2089
Piszczac,51.9667,23.3833,2087
Rząska,50.1,19.8333,2082
Myślachowice,50.1842,19.4797,2081
Ryczywół,52.8136,16.8353,2080
Straszydle,49.9003,21.9814,2077
Świerzowa Polska,49.6775,21.7081,2076
Gorzyce Wielkie,51.6375,17.7281,2076
Paszyn,49.6228,20.7811,2070
Lipusz,54.0975,17.7844,2069
Stepnica,53.6536,14.6325,2067
Garbów,51.3503,22.34,2066
Wilcza,50.1883,18.5967,2063
Obra,52.0833,16.05,2059
Stare Babice,52.25,20.85,2056
Przysietnica,49.5133,20.6244,2055
Lubichowo,53.8678,18.3989,2052
Krasiejów,50.6681,18.2467,2050
Główczyce,54.6192,17.3706,2048
Marcinkowice,49.6686,20.6578,2044
Cielcza,52.0167,17.4833,2044
Jabłonna,51.0872,22.59,2041
Świętoszów,51.4667,15.4,2036
Granowo,52.2222,16.5281,2031
Strzeszyn,49.7219,21.2058,2020
Długosiodło,52.7667,21.5833,2020
Sulików,51.0758,15.0669,2014
Sławoborze,53.8919,15.7117,2009
Konina,49.6,20.1167,2008
Warszowice,50.0,18.7167,2005
Rozbórz,50.05,22.55,2005
Rytel,53.7542,17.7756,2004
Osiek,50.52,21.4428,2001
Klimontów,50.6564,21.4528,2000
Sanniki,52.3339,19.8658,2000
Komorowo,52.8333,21.85,2000
Krupski Młyn,50.5742,18.6239,2000
Rogowo,52.7264,17.6511,2000
Ruszów,51.4006,15.1831,2000
Sadki,53.1614,17.4461,2000
Równe,49.5956,21.7172,2000
Wohyń,51.75,22.7833,2000
Banie,53.1008,14.6678,2000
Brzezna,49.6033,20.6144,2000
Bystra,49.6619,21.0861,2000
Pawłowice,51.8303,16.75,2000
Piotrowice,49.9786,19.3736,2000
Stężyca,51.5806,21.7703,2000
Suchowola,50.5833,23.2333,2000
Nurzec-Stacja,52.4631,23.0872,2000
Czerwona Woda,51.2497,15.2133,2000
Bełchów,52.0333,20.0667,2000
Miłkowice,51.2575,16.0567,2000
Czarny Bór,50.7667,16.1333,2000
Bliżyn,51.1089,20.7567,2000
Borek Wielki,50.1,21.6667,2000
Husów,49.9833,22.2833,2000
Nowe Miasto,52.65,20.6333,2000
Dębowiec,49.6836,21.46,2000
Cieksyn,52.5667,20.6833,2000
Serock,53.3567,18.0825,2000
Siedliska,49.7283,20.9817,2000
Goleniowy,50.6325,19.8742,2000
Zręcin,49.6678,21.6906,2000
Łomnica-Zdrój,49.4333,20.7333,2000
Dobrociesz,49.7833,20.5333,2000
Wierzchlas,51.2033,18.6642,2000
Wilkasy,54.0122,21.7353,2000
Wilków,51.0833,15.9333,2000
Zawada,50.6522,23.1697,2000
Łomnica,50.8647,15.7958,2000
Łączany,49.9833,19.5667,2000
Kielcza,50.5667,18.5333,2000
Kamieniec Wrocławski,51.0725,17.1789,2000
Miętne,51.9225,21.5728,2000
Otrębusy,52.1283,20.7606,2000
Rzuchowa,49.95,20.95,2000
Radocza,49.9167,19.4833,1997
Wrząsowice,49.95,19.9667,1986
Ostrowy nad Okszą,50.9667,19.05,1985
Żarki-Letnisko,50.6167,19.2667,1980
Kisielówka,49.7622,20.3536,1980
Szczerbice,50.1069,18.4386,1980
Zdziłowice,50.8139,22.5325,1980
Stara Wieś,49.9,19.0833,1978
Ślemień,49.7167,19.35,1977
Pogórze,49.8022,18.8213,1972
Ćmińsk,50.9858,20.5494,1968
Sokolniki,50.65,21.8167,1965
Wielki Klincz,54.1008,18.0639,1960
Kuropatnik,50.7469,17.1075,1956
Mniów,51.0125,20.4864,1956
Libertów,49.9667,19.8833,1952
Sochocin,52.6833,20.4667,1945
Brzeziny,50.7608,20.5956,1944
Kochanowice,50.7,18.75,1944
Subkowy,54.0017,18.7694,1941
Huta Stara B,50.7333,19.1167,1939
Izbica,50.8833,23.1667,1933
Biskupiec,53.5006,19.3506,1927
Podłęże,50.0,20.1667,1924
Racula,51.9,15.55,1924
Wielowieś,50.5089,18.6072,1924
Pierściec,49.8313,18.8229,1918
Siemirowice,54.4,17.75,1909
Biszcza,50.4106,22.6422,1901
Książki,53.3333,19.0667,1900
Krzczonów,49.7333,19.9333,1900
Wisła Wielka,49.95,18.8667,1900
Bieliny,50.85,20.9094,1900
Brzyska,49.8333,21.3833,1900
Budy Łańcuckie,50.1167,22.4333,1900
Pstrągowa,49.9342,21.7619,1900
Jasionka,50.115,22.0553,1900
Gomunice,51.1667,19.4833,1900
Okocim,49.9453,20.5986,1900
Klimkówka,49.5875,21.8306,1900
Kodeń,51.9,23.6,1900
Okuniew,52.2667,21.3,1900
Chełmsko Śląskie,50.6667,16.0667,1900
Charsznica,50.4078,19.9306,1900
Gałków Mały,51.7333,19.7333,1900
Szewna,50.9064,21.3658,1900
Dubicze Cerkiewne,52.65,23.4333,1900
Wierzbica,51.25,21.0781,1900
Wiśniowa,49.7833,20.1,1900
Występ,53.125,17.6494,1900
Zielona,53.0833,19.9667,1900
Lubicz Dolny,53.0311,18.7461,1900
Tenczyn,49.6833,19.9667,1900
Nawojowa Góra,50.1189,19.6686,1896
Kochcice,50.7,18.6833,1895
Wrzosowa,50.7333,19.1333,1889
Dąbrowa,52.4,16.75,1885
Bielany,49.9389,19.2042,1882
Kołbiel,52.0667,21.4833,1880
Siemiechów,49.85,20.9167,1873
Święta Katarzyna,51.0333,17.1167,1872
Kończyce Wielkie,49.8321,18.6527,1864
Poręba Wielka,50.0,19.2833,1858
Polnisch Neudorf,50.65,17.7833,1858
Polska Nowa Wieś,50.65,17.7833,1858
Kwaczała,50.0708,19.5047,1857
Szpetal Górny,52.6833,19.1,1856
Sól,49.4889,19.0439,1850
Bukowice,51.3953,17.3561,1850
Liszki,50.0333,19.7667,1850
Skarbimierz-Osiedle,50.8333,17.4333,1845
Tulce,52.35,17.0833,1842
Orzech,50.4333,18.9333,1840
Zbuczyn,52.0867,22.4361,1836
Kębłowo,52.05,16.1167,1834
Stare Pole,54.0544,19.1997,1834
Wysoka,49.9167,19.6,1833
Mosty,54.6081,18.4961,1830
Kryg,49.6667,21.25,1830
Pszczew,52.4667,15.7667,1826
Wiśniowa,49.8667,21.6333,1826
Wola Mielecka,50.2833,21.3667,1823
Jodłówka,49.9333,22.4167,1822
Łopienno,52.7061,17.4733,1820
Filipów,54.1806,22.6208,1814
Kamionka,51.4717,22.4628,1800
Lubycza Królewska,50.3333,23.5333,1800
Jednorożec,53.1333,21.05,1800
Szczurowa,50.1167,20.65,1800
Krośnice,51.4667,17.3667,1800
Rudki,50.8961,21.0894,1800
Pawłosiów,49.9833,22.65,1800
Rozdrażew,51.7833,17.5167,1800
Rzekuń,53.05,21.6333,1800
Wólka Niedźwiedzka,50.2333,22.1833,1800
Zbiersk-Cukrownia,51.9522,18.1383,1800
Bobrek,50.0564,19.2528,1800
Budy Głogowskie,50.1608,21.9058,1800
Potok,49.7206,21.6794,1800
Połomia,49.8981,21.8811,1800
Siołkowa,49.6369,20.9353,1800
Urzejowice,50.0167,22.4667,1800
Sietesz,49.9833,22.3333,1800
Cewków,50.25,22.8667,1800
Czarże,53.2167,18.3,1800
Zaręba,51.1056,15.2297,1800
Jeżów Sudecki,50.9325,15.7433,1800
Golkowice,49.9667,19.9667,1800
Górki,49.6472,22.0408,1800
Jastrzębia,49.8,20.85,1800
Ostrów,49.9694,22.785,1800
Kolbuszowa Dolna,50.25,21.7667,1800
Kolbuszowa Górna,50.2333,21.8,1800
Okrzeja,51.75,22.1333,1800
Dzianisz,49.3314,19.8672,1800
Lipinki Łużyckie,51.6447,15.0097,1800
Tylicz,49.4,21.0333,1800
Cieszków,51.6333,17.35,1800
Siedlisko,51.7667,15.8167,1800
Sieniawa,49.5333,19.9333,1800
Gostycyn,53.4892,17.81,1800
Góra Ropczycka,50.0528,21.6814,1800
Głogowo,53.0,18.8167,1800
Lyski,50.1197,18.3914,1800
Lubzina,50.05,21.5167,1800
Siekierczyn,51.1,15.1833,1800
Świerże Górne,51.65,21.4833,1800
Włostów,50.7464,21.4408,1800
Ostrówek,52.3833,21.3667,1800
Piątnica Poduchowna,53.1953,22.0953,1800
Stare Juchy,53.9208,22.1708,1800
Rzerzęczyce,50.8833,19.3167,1796
Jaskrów,50.8333,19.2167,1794
Bolęcin,50.1333,19.4833,1793
Przyborów,49.6161,19.3742,1793
Łobodno,50.9167,18.9833,1792
Sarnów,50.3739,19.15,1791
Mrozy,52.0167,20.3667,1789
Sadlinki,53.6686,18.8814,1785
Przecław,50.1931,21.4783,1775
Panki,50.8833,18.75,1773
Dębowiec,49.8135,18.7201,1772
Dziemiany,54.0064,17.7683,1762
Chrzanów,50.7739,22.6053,1760
Pecna,52.1833,16.8,1754
Jeżewo,53.5094,18.4956,1753
Stare Bojanowo,51.9933,16.5836,1750
Lubomierz,49.6125,20.195,1750
Koleczkowo,54.4878,18.3417,1750
Wykroty,51.2333,15.2833,1748
Michów,51.5256,22.3136,1746
Kuźnica,53.5097,23.6436,1740
Binarowa,49.7542,21.2292,1740
Kluszkowce,49.4667,20.3,1738
Brody,51.0261,21.2169,1737
Lisów,50.7167,18.7833,1727
Zagnańsk,50.9803,20.6644,1726
Przewrotne,50.2167,21.95,1726
Ciasna,50.75,18.6,1722
Trzebinia,49.65,19.2167,1721
Parszów,51.0744,20.9356,1720
Dołhobyczów,50.5867,24.0336,1720
Cisownica,49.721,18.7628,1717
Łaziska,49.9361,18.4441,1715
Kuryłówka,50.2972,22.4647,1711
Cekcyn,53.5728,18.01,1710
Gniewino,54.7167,18.0083,1710
Sól,50.5083,22.6469,1708
Olesno,50.2167,20.9333,1708
Janków Przygodzki,51.6636,17.7881,1707
Kościelec,50.8967,19.2153,1706
Sieraków Śląski,50.7833,18.5667,1704
Chocz,51.9667,17.8667,1700
Rożnów,49.7756,20.7017,1700
Łomazy,51.9,23.1667,1700
Babiak,52.3436,18.6661,1700
Podgórzyn,50.8325,15.6836,1700
Przyborów,50.03,20.6633,1700
Strzyżowice,50.3872,19.0806,1700
Żydowo,52.4519,17.5897,1700
Tomaszów Bolesławiecki,51.2633,15.6842,1700
Łucka,51.4333,22.65,1700
Rudawa,50.117,19.7,1700
Ujazd,51.5944,19.9269,1700
Łęki Dukielskie,49.6044,21.6697,1700
Przedmieście Czudeckie,49.9642,21.8236,1700
Przybiernów,53.7583,14.7844,1700
Czernichów,49.9881,19.6742,1700
Dobre,52.6833,18.55,1700
Biadki,51.6736,17.5522,1700
Mieszków,52.0236,17.4656,1700
Ostrówek,52.55,21.7667,1700
Wapno,52.9,17.4667,1700
Bolestraszyce,49.8114,22.8414,1700
Lisewo,53.2939,18.6886,1700
Jaroszowice,49.8667,19.5333,1700
Jaroszowiec,50.3333,19.6,1700
Jedlińsk,51.5167,21.1167,1700
Skrwilno,53.0167,19.6,1700
Golina,51.9114,17.4708,1700
Groń,49.3903,20.0611,1700
Korzenna,49.6867,20.8453,1700
Latoszyn,50.0333,21.3667,1700
Długołęka-Świerkla,49.6275,20.5461,1700
Świekatowo,53.4197,18.0922,1700
Narzym,53.1833,20.25,1700
Siedliska,49.9531,21.9464,1700
Grabiny,50.0475,21.34,1700
Gromiec,50.0594,19.2944,1700
Smardzewice,51.4833,20.0333,1700
Łąka,50.0858,22.0964,1700
Żórawina,50.9833,17.05,1700
Złotoria,52.9833,18.7,1700
Juszczyna,49.6286,19.2269,1700
Rymanów Zdrój,49.55,21.85,1700
Nieledew,50.8297,23.7889,1700
Ożarowice,50.4667,19.05,1700
Piława Dolna,50.6919,16.7036,1700
Olza,49.9542,18.3392,1694
Chałupki,49.9244,18.3183,1694
Cewice,54.4364,17.7353,1687
Koszyce Małe,49.9689,20.9475,1680
Rajkowy,53.9642,18.7097,1677
Baranów,51.5572,22.1356,1672
Targowisko,49.9833,20.2833,1670
Żegocina,49.8167,20.4167,1670
Trzetrzewina,49.6269,20.5958,1670
Gracze,50.6967,17.55,1670
Grywałd,49.4458,20.3706,1670
Łabunie,50.6667,23.3667,1670
Kalej,50.8369,18.9817,1668
Sopotnia Wielka,49.5833,19.2833,1667
Nowe Brzesko,50.1372,20.3847,1662
Rudniki,50.8667,19.2333,1658
Rączna,50.0106,19.7614,1656
Skomlin,51.1711,18.3878,1656
Solec nad Wisłą,51.1339,21.7631,1650
Medynia Głogowska,50.1589,22.1381,1650
Łososina Dolna,49.7478,20.6311,1650
Grzegorzew,52.1667,18.7,1650
Grupa-Osiedle,53.5036,18.6439,1646
Drawsko,52.85,16.0333,1640
Szemud,54.4867,18.2256,1639
Stawiguda,53.6586,20.3997,1639
Rudziniec,50.3572,18.4067,1633
Łagów,50.7767,21.085,1630
Zawada,51.9872,15.57,1629
Dobre,52.3214,21.6783,1627
Władysławów,52.1,18.4667,1625
Łebcz,54.7681,18.3356,1620
Brudzew,52.0994,18.6042,1620
Zakrzewo,53.4108,17.155,1620
Krzeszów,49.7667,19.4833,1618
Błażkowa,49.85,21.3694,1616
Puńców,49.7184,18.6625,1615
Otyń,51.8472,15.7097,1615
Mrzeżyno,54.1439,15.2917,1611
Kębłowo,54.5961,18.0978,1610
Przysieki,49.7347,21.375,1607
Malanów,51.95,18.3833,1607
Borówiec,52.2833,17.0333,1603
Tyniec Mały,51.0333,16.9167,1602
Mosty,54.5483,17.785,1601
Raciążek,52.8667,18.8167,1601
Nowa Słupia,50.8625,21.0869,1600
Kicin,52.45,17.0167,1600
Racławice Śląskie,50.31,17.7692,1600
Ruda,50.2011,21.3486,1600
Frydman,49.4667,20.2333,1600
Jadachy,50.4833,21.6833,1600
Wińsko,51.4667,16.6333,1600
Wola Przybysławska,51.4,22.3333,1600
Brody-Parcele,52.4833,20.75,1600
Bukówiec Górny,51.9453,16.4119,1600
Pisarzowice,51.145,15.2239,1600
Sułów,51.5,17.1667,1600
Łagów,52.3333,15.3,1600
Zakliczyn,49.8833,20.0333,1600
Czarna,50.1167,22.1833,1600
Czechy,51.6069,18.8922,1600
Czernin,53.9053,19.0644,1600
Bezwola,51.7667,22.8,1600
Bibice,50.13,19.9525,1600
Bielcza,50.0167,20.7167,1600
Chabówka,49.6,19.9333,1600
Michałowice,50.1636,19.9797,1600
Miękinia,51.1667,16.7667,1600
Uszew,49.9,20.6,1600
Borek Stary,49.9419,22.1033,1600
Bożków,50.5167,16.5667,1600
Bratian,53.4667,19.6167,1600
Lipnik,49.7833,20.0667,1600
Maków,51.9464,20.0475,1600
Huta-Dąbrowa,51.8072,22.0486,1600
Nowosielce,50.0583,22.3981,1600
Nagoszyn,50.14,21.4036,1600
Mokobody,52.2833,22.1167,1600
Sitaniec,50.7508,23.2425,1600
Dydnia,49.6903,22.1606,1600
Długomiłowice / Langlieben,50.2833,18.15,1600
Tuczno-Wieś,52.85,18.1,1600
Zagościniec,52.3667,21.25,1600
Leszno Górne,51.4667,15.6167,1600
Mystków,49.6167,20.8,1600
Rzozów,49.9533,19.7981,1600
Stare Żukowice,50.0873,21.1063,1600
Majdan Sieniawski,50.2833,22.7167,1600
Gronowo Elbląskie,54.085,19.3072,1600
Gruta,53.4525,18.9567,1600
Przemęt,52.0167,16.3,1600
Skawinki,49.8333,19.7167,1600
Wojsławice,50.9192,23.5467,1600
Wąsosz,53.5219,22.3203,1600
Kidałowice,49.9833,22.6667,1600
Mochy,52.0,16.1667,1600
Posada Górna,49.5667,21.8667,1600
Łysa Góra,49.9167,20.7333,1600
Nawsie,49.9333,21.65,1599
Klein Strehlitz,50.4667,17.8667,1598
Strzeleczki,50.4667,17.8667,1598
Pokrówka,51.1,23.45,1594
Gorzyczki,49.9481,18.4047,1593
Rzeczyca,51.5964,20.2906,1589
Wilkowice,51.8833,16.5333,1589
Chróścina,50.6656,17.8003,1585
Babice,50.0538,19.2011,1582
Chmielno,54.3264,18.1008,1580
Miedźna,49.9833,19.05,1576
Wrzawy,50.7167,21.85,1572
Kostomłoty Pierwsze,50.9178,20.59,1571
Nowa Wieś,52.1466,20.7884,1571
Rzeczenica,53.7569,17.1067,1566
Klaudyn,52.2792,20.855,1565
Lutoryż,49.9667,21.9167,1564
Podleszany,50.2667,21.4167,1562
Stary Kisielin,51.9333,15.5833,1561
Niwiska,50.2167,21.6,1560
Wisznice,51.79,23.2089,1559
Czermin,50.3333,21.3333,1557
Janowice,49.8833,19.0833,1557
Różaniec,50.3339,22.8339,1556
Pewel Ślemieńska,49.6828,19.3158,1555
Szczepanowice,49.95,20.9,1550
Orzechówka,49.7292,21.9439,1550
Gać,50.0261,22.3594,1550
Przegędza,50.1167,18.6333,1549
Dygowo,54.1331,15.7211,1549
Pewel Wielka,49.65,19.3333,1548
Stopnica,50.4392,20.9406,1545
Hipolitów,52.2167,21.3333,1544
Nowe Miasto nad Wartą,52.0833,17.4,1543
Szczejkowice,50.1,18.6833,1543
Łoźnica,53.6833,14.8667,1542
Zgłobień,50.0092,21.8372,1542
Bestwinka,49.9186,19.0631,1541
Gidle,50.95,19.4667,1540
Wierzchucino,54.7875,18.0036,1536
Kaźmierz,52.5131,16.5864,1536
Sobowidz,54.1431,18.6097,1535
Bąków,49.8981,18.7329,1534
Masłów Pierwszy,50.9067,20.7264,1528
Kostomłoty Drugie,50.9269,20.5914,1522
Bogacica,50.9706,18.1367,1520
Mircze,50.6528,23.9047,1520
Bolechowice,50.15,19.8,1515
Kobylanka,53.3464,14.87,1513
Porajów,50.8844,14.8325,1513
Lublewo Gdańskie,54.2833,18.5,1512
Jazowsko,49.5,20.5,1512
Zabagno,54.0256,18.6422,1511
Swarożyn,54.0394,18.6628,1511
Łosiów,50.7833,17.5667,1510
Czarna Góra,49.3864,20.1331,1506
Łąkta Górna,49.8333,20.4333,1505
Rogalinek,52.25,16.9,1501
Ślesin,53.15,17.7,1500
Uhowo,53.0167,22.9167,1500
Kiełpino,53.1886,15.6444,1500
Klimontów,50.2219,20.3053,1500
Rogów,51.8164,19.8797,1500
Rusiec,51.3167,18.9833,1500
Jabłonna Lacka,52.4775,22.4428,1500
Paszczyna,50.0833,21.5167,1500
Wielmoża,50.2667,19.8167,1500
Wsola,51.4833,21.1167,1500
Wólka Pełkińska,50.0833,22.6167,1500
Biskupice Ołoboczne,51.6833,17.9333,1500
Bodzanów,50.3394,17.3831,1500
Brzeźno,52.2,18.3,1500
Brzyska Wola,50.3431,22.5633,1500
Bukowsko,49.4789,22.0603,1500
Bysław,53.5069,17.9939,1500
Piekary,50.0167,19.7833,1500
Mokrsko,51.1747,18.4628,1500
Rożnowo,52.6811,16.8678,1500
Tuplice,51.6833,14.8333,1500
Niedrzwica Kościelna,51.0833,22.3667,1500
Mikołajki Pomorskie,53.8514,19.1672,1500
Prokowo,54.3589,18.1664,1500
Pólka-Raciąż,52.8172,20.1033,1500
Zebrzydowa-Wieś,51.2333,15.3833,1500
Białaczów,51.3,20.3,1500
Huszcza Pierwsza,51.8633,23.3136,1500
Nowe Łubki,52.58,20.0314,1500
Stróżówka,49.6833,21.1333,1500
Modliszewice,51.2036,20.365,1500
Rycerka Górna,49.4667,19.0333,1500
Jonkowo,53.8256,20.3081,1500
Boćki,52.65,23.0333,1500
Wojnarowa,49.6667,20.9333,1500
Lutynia,51.1333,16.8,1500
Górno,50.8472,20.8269,1500
Izabelin C,52.2967,20.8106,1500
Jasienica,49.8333,19.85,1500
Osiek,50.2333,19.6167,1500
Ostrów,50.0833,21.6,1500
Nakło,50.5833,18.1167,1500
Klęczany,50.0747,21.7972,1500
Kombornia,49.7142,21.8747,1500
Konieczkowa,49.85,21.9333,1500
Kramarzówka,49.85,22.5,1500
Kroczyce,50.5636,19.5706,1500
Krzywaczka,49.8833,19.8333,1500
Kąkolówka,49.85,22.0667,1500
Radostowice,50.0167,18.9,1500
Zamch,50.3122,23.0222,1500
Nowa Wieś Ełcka,53.7833,22.3333,1500
Baranów,51.2669,18.0042,1500
Dębno,50.1978,22.5169,1500
Ubocze,51.0575,15.4222,1500
Leźnica Wielka-Osiedle,51.9967,19.1442,1500
Tarnawa Dolna,49.7833,19.5667,1500
Ciechów,51.1333,16.5667,1500
Siedlec,51.2325,17.1117,1500
Srebrna Góra,50.5761,16.6625,1500
Stare Miasto,52.1833,18.2142,1500
Gaworzyce,51.6281,15.8806,1500
Wójtowa,49.6972,21.3103,1500
Wólka Podleśna,50.1181,22.1119,1500
Goczałków,51.0072,16.3233,1500
Grudusk,53.0586,20.6247,1500
Grębocice,51.5981,16.1658,1500
Górsk,53.0572,18.4225,1500
Gąsawy Rządowe,51.2,20.9333,1500
Głuchów,50.0833,22.2667,1500
Handzlówka,49.9833,22.2333,1500
Werynia,50.25,21.8333,1500
Lutomiersk,51.75,19.2,1500
Słupia pod Kępnem,51.2386,18.0422,1500
Łęki Dolne,49.9833,21.2333,1500
Żabów,53.1833,14.8333,1500
Dmosin,51.9258,19.7567,1500
Witów,49.3264,19.8239,1500
Zarzecze,49.6772,21.4817,1500
Zębowice,50.7619,18.3472,1500
Zembowitz,50.7619,18.3472,1500
Śniadowo,53.0333,21.9833,1500
Kamień Śląski,50.55,18.0833,1500
Kikół,52.9167,19.1167,1500
Mroczeń,51.2167,17.9667,1500
Stobierna,50.0303,21.4908,1500
Straszęcin,50.0642,21.3592,1500
Sulbiny Górne,51.8656,21.6283,1500
Sulęczyno,54.2333,17.7667,1500
Komorów,50.35,21.7333,1495
Chudów,50.2167,18.7833,1493
Charzykowy,53.7328,17.5083,1492
Rychwałd,49.6992,19.27,1491
Gościszów,51.1611,15.4517,1490
Gułtowy,52.35,17.3333,1490
Cisek,50.2833,18.2,1485
Drzonków,51.8833,15.5667,1484
Kobylnica,52.4333,17.0667,1480
Stara Kiszewa,53.99,18.1692,1480
Gwoźnica Górna,49.8167,21.9833,1480
Mętków,50.0514,19.3725,1480
Drygały,53.7,22.1,1474
Szczaniec,52.2667,15.6833,1473
Wilkowyja,52.0,17.5333,1470
Baligród,49.3306,22.2853,1468
Zalesie Śląskie,50.4167,18.2667,1468
Jarosławiec,50.9,23.7,1466
Dziekanów Leśny,52.35,20.8667,1466
Trzciana,49.8456,20.3714,1462
Cześniki,50.7167,23.45,1460
Pewel Mała,49.6667,19.2667,1458
Fajsławice,51.1,22.95,1457
Kamienica Polska,50.6833,19.15,1456
Boksycka,50.95,21.3319,1454
Pokój,50.9025,17.8369,1452
Borowa,50.3864,21.3558,1451
Rosko,52.8667,16.3167,1450
Dąbrowa,52.7333,17.9333,1450
Sokoły,52.9928,22.7006,1450
Rokiciny Podhalańskie,49.5667,19.9167,1450
Wierzbno,50.935,17.1792,1450
Łętownia,50.325,22.2333,1450
Stare Bogaczowice,50.85,16.1667,1450
Kiełczewo,52.1028,16.6397,1447
Krzyżowa,49.6039,19.3269,1444
Galewice,51.345,18.2581,1443
Karpicko,52.1167,16.1167,1443
Rajsko,50.0,19.1833,1440
Krużlowa Wyżna,49.6333,20.8833,1440
Psary,50.1733,19.5322,1439
Łostówka,49.6833,20.15,1439
Dąbrówka,52.3842,16.7436,1438
Choroń,50.6833,19.2667,1438
Konstantynów,52.2078,23.0853,1437
Rożnowice,49.7564,21.1597,1436
Konarzewo,52.3333,16.7167,1433
Kokoszkowy,53.9972,18.5281,1430
Latowicz,52.0267,21.8108,1429
Polska Cerekiew,50.2292,18.1272,1429
Rycerka Dolna,49.4833,19.1,1425
Wielka Wieś,51.0719,20.9858,1425
Piątkowa,49.6197,20.7481,1423
Międzybrodzie Żywieckie,49.7667,19.2,1421
Wiskitki,52.0833,20.4,1420
Mosty,53.5481,14.9556,1420
Nadma,52.3608,21.1681,1420
Samborowo,53.6661,19.8167,1415
Jerka,51.9992,16.8517,1414
Małdyty,53.9197,19.7456,1410
Czaszyn,49.4492,22.2169,1410
Przeczyce,50.4358,19.165,1408
Mirosławiec Górny,53.3722,16.0839,1408
Sączów,50.4333,19.0167,1406
Linia,54.4519,17.9336,1405
Podolsze,50.0167,19.4333,1405
Jodłówka,49.9833,20.55,1400
Konotop,51.9333,15.9,1400
Kotla,51.7458,16.0347,1400
Krzeszów,50.7342,16.0642,1400
Krzywda,51.7944,22.2011,1400
Laski,51.1939,18.0253,1400
Radlin,50.8614,20.7519,1400
Radzików,52.2275,20.6158,1400
Rudka,52.7283,22.7306,1400
Rzepiennik Strzyżewski,49.8,21.05,1400
Róża,50.1122,21.3025,1400
Futoma,49.85,22.1333,1400
Gaj,49.9561,19.9019,1400
Rostarzewo,52.1333,16.2,1400
Widziszewo,52.0386,16.6019,1400
Wola Rębkowska,51.9,21.5667,1400
Zebrzydowa,51.2333,15.3833,1400
Pątnów,51.1481,18.6192,1400
Studzienice,50.0189,18.9744,1400
Jaszkowa Dolna,50.4333,16.6833,1400
Żyraków,50.0833,21.4,1400
Niedźwiedź,49.6333,20.1667,1400
Ostroszowice,50.6333,16.6333,1400
Mała Nieszawka,52.9894,18.5536,1400
Bąków,50.9667,18.3167,1400
Cergowa,49.55,21.7,1400
Daniec,50.6167,18.1167,1400
Miedzna,52.4672,22.0894,1400
Maszewo Duże,52.5667,19.6167,1400
Borowno,50.9319,19.2747,1400
Skoroszyce,50.5975,17.3842,1400
Rzepedź,49.3833,22.1167,1400
Maciejowice,51.6833,21.55,1400
Dębno,49.9519,20.7139,1400
Henryków,50.6525,17.0108,1400
Jeżów,51.8136,19.9686,1400
Ostrów,49.7956,22.7189,1400
Paprotnia,52.2167,20.4333,1400
Klenica,51.9833,15.7833,1400
Kołbacz,53.3006,14.8133,1400
Krzeszyce,52.5833,15.0,1400
Księżomierz-Kolonia,50.9167,21.9667,1400
Mścice,54.2186,16.0889,1400
Truskaw,52.3,20.7833,1400
Poraż,49.4833,22.2333,1400
Łapsze Niżne,49.4,20.25,1400
Obidza,49.5167,20.5167,1400
Ochojno,49.9667,19.9667,1400
Odrzechowa,49.5667,21.9833,1400
Dzikowiec,50.2833,21.85,1400
Dąbrowa Chełmińska,53.1833,18.3,1400
Dąbrówno,53.4333,20.0333,1400
Tokarnia,50.7661,20.445,1400
Stubno,49.9,22.9667,1400
Lewkuw,51.7,17.8667,1400
Narew,52.9128,23.5208,1400
Trzebiel,51.6358,14.8164,1400
Chodel,51.1119,22.1331,1400
Sulmierzyce,51.1833,19.1919,1400
Uherce Mineralne,49.465,22.4042,1400
Gniechowice,50.9889,16.8311,1400
Gowarczów,51.2783,20.4381,1400
Gołaczewy,50.3667,19.7167,1400
Grodziec,52.0333,18.0667,1400
Gąsawa,52.7667,17.75,1400
Pogorzyce,50.1,19.4167,1400
Skomielna Czarna,49.7333,19.8333,1400
Skołoszów,49.9167,22.8,1400
Skulsk,52.4833,18.3333,1400
Świdnica,51.8969,15.4042,1400
Żyrzyn,51.5,22.1,1400
Dobrzelin,52.2333,19.6167,1400
Domecko,50.6179,17.8628,1400
Dometzko,50.6179,17.8628,1400
Węgrzce,50.12,19.9694,1400
Zarzecze,49.9861,22.5372,1400
Osowiec Śląski,50.75,18.0333,1400
Srokowo,54.2136,21.5206,1400
Strażów,50.0667,22.1167,1400
Palowice,50.1167,18.75,1394
Tumlin-Węgle,50.965,20.5936,1393
Klementowice,51.35,22.15,1391
Bobrowa,50.1164,21.4314,1390
Dulowa,50.15,19.5167,1384
Zamarski,49.7823,18.6711,1382
Kiełpin,52.3481,20.865,1381
Dźwierzuty,53.7167,20.95,1380
Grzmiąca,53.8333,16.4,1375
Kamionki,52.2833,16.9833,1373
Orle,54.6403,18.1697,1373
Bierawa,50.2858,18.2422,1370
Babice,50.07,19.4486,1369
Złota,49.8764,20.6975,1368
Kokotów,50.0128,20.0821,1367
Mąchocice Kapitulne,50.9,20.7561,1366
Sadów,50.6667,18.7333,1365
Tuchomie,54.1156,17.3353,1365
Dzięgielów,49.7222,18.7036,1364
Wierzchowisko,50.8667,19.1167,1363
Sąspów,50.2289,19.7694,1361
Kryspinów,50.0333,19.7833,1360
Granowiec,51.5,17.65,1360
Żarnówka,49.7289,19.7272,1358
Kowanówko,52.6667,16.8333,1358
Kryry,50.0,18.8,1355
Leźno,54.3475,18.4328,1354
Szczytniki,52.3,17.0167,1352
Dylewo,53.1933,21.4517,1352
Łąck,52.4667,19.6167,1350
Gorenice,50.2064,19.6222,1350
Gowidlino,54.3253,17.7906,1350
Grodziec,50.705,18.2808,1349
Żerniki Wrocławskie,51.0332,17.0558,1348
Grzybowo,54.15,15.4833,1347
Zakrzewo,52.4,16.7333,1343
Chmielek,50.3903,22.8778,1341
Potok Górny,50.3833,22.5667,1341
Błotnowola,50.3333,20.9333,1339
Nidek,49.9167,19.3333,1339
Rusinowice,50.6333,18.75,1336
Wołowice,49.9833,19.7333,1334
Rakowiec,53.7275,19.0217,1328
Bucze,50.0336,20.6,1327
Mizerów,49.9914,18.8089,1326
Żółwin,52.1067,20.7344,1325
Grabno,49.9167,20.7667,1324
Skorzewo,54.1681,17.9703,1323
Obrowo,52.9717,18.8783,1322
Racot,52.0564,16.7147,1321
Stary Dzików,50.25,22.9333,1320
Borzęcin Duży,52.25,20.7333,1320
Pozezdrze,54.1419,21.8586,1320
Trzebieszów,51.9833,22.55,1320
Jawidz,51.3667,22.7167,1319
Zarzecze,49.7167,19.1667,1319
Starokrzepice,50.9333,18.65,1319
Michałów-Reginów,52.4211,20.9717,1318
Goryń,51.55,21.2833,1318
Skierbieszów,50.8517,23.3653,1317
Kołaczyce,49.8106,21.4336,1316
Zabłocie,49.8971,18.7999,1312
Modliborzyce,50.7525,22.3294,1311
Chojnik,49.85,20.9833,1311
Choczewo,54.7408,17.8919,1310
Stanica,50.2056,18.5128,1307
Tryńcza,50.1667,22.5667,1305
Psary,50.6142,18.9672,1304
Nietków,52.2,15.4333,1302
Mogilno,49.6333,20.8333,1301
Nozdrzec,49.7833,22.2,1300
Kamienica,50.45,16.95,1300
Kamień,50.0158,19.5872,1300
Komarówka Podlaska,51.8033,22.9433,1300
Kościelec,52.1744,18.57,1300
Krasnopol,54.1158,23.2069,1300
Krynka,52.0033,22.3881,1300
Rogów,51.2033,20.4353,1300
Ruda,51.2014,18.6061,1300
Rudna Wielka,50.0833,21.95,1300
Ryczywół,51.69,21.4214,1300
Rząśnik,52.7,21.3667,1300
Gaboń,49.5336,20.5606,1300
Iwaniska,50.7317,21.275,1300
Rutki-Kossaki,53.0833,22.4333,1300
Rychtal,51.15,17.85,1300
Widawa,51.4372,18.9392,1300
Wolibórz,50.6,16.5667,1300
Zawada,50.0614,21.4858,1300
Zederman,50.25,19.6833,1300
Bartniki,52.0106,20.25,1300
Bielsko,52.6058,15.9186,1300
Bodzanów,52.5011,20.0281,1300
Bonin,54.1506,16.2575,1300
Borucin,50.0,18.15,1300
Pobiedna,50.9369,15.2958,1300
Sypniewo,53.3667,17.3167,1300
Sypniewo,53.4683,16.6061,1300
Tarnówka,53.34,16.8503,1300
Pawłowiczki,50.25,18.05,1300
Radawiec Duży,51.2,22.4,1300
Czarna,49.3242,22.6675,1300
Czarnocin,51.5667,19.6667,1300
Bemowo Piskie,53.7333,22.05,1300
Bieździedza,49.8167,21.5,1300
Czarna Sędziszowska,50.1256,21.7531,1300
Czarnożyły,51.2814,18.5633,1300
Strykowo,52.25,16.6167,1300
Bledzew,52.5167,15.4,1300
Wola Jachowa,50.8478,20.8675,1300
Łubowo,53.5833,16.3833,1300
Ruda Wielka,51.3,21.0667,1300
Marcinkowice,50.9833,17.2333,1300
Jarocin,50.5644,22.3194,1300
Domaszków,50.2156,16.6794,1300
Dąbrowice,52.3136,19.0839,1300
Jasionka,49.55,21.7333,1300
Nowa Wieś,53.5233,18.8122,1300
Odrzywół,51.5167,20.55,1300
Ostrowite,53.0667,19.2833,1300
Łopuszna,49.4833,20.1333,1300
Krasnosielc,53.0167,21.1667,1300
Kłyżów,50.5475,22.1644,1300
Porąbka Uszewska,49.95,20.7167,1300
Nowe Chechło,50.4517,18.9264,1300
Nowe Sioło,50.2167,23.15,1300
Nowiny Wielkie,52.6714,15.0042,1300
Dąbrówka Wielkopolska,52.2833,15.8167,1300
Trzciana,50.3081,21.3369,1300
Wizna,53.2,22.3833,1300
Lipnica,50.2833,21.8833,1300
Mąkowarsko,53.4064,17.8117,1300
Mędrzechów,50.2833,20.9333,1300
Młodzieszyn,52.3,20.2,1300
Waganiec,52.8167,18.85,1300
Rudna,51.5111,16.2633,1300
Chylice-Kolonia,52.0897,20.5533,1300
Ciążeń,52.2167,17.8167,1300
Stanisławice,49.9917,20.3542,1300
Goręczyno,54.2656,18.1625,1300
Grabów,52.1333,19.0167,1300
Gruczno,53.35,18.3167,1300
Powroźnik,49.3708,20.9503,1300
Majdan Górny,50.4667,23.4833,1300
Skorzeszyce,50.8306,20.88,1300
Ładna,50.0167,21.0833,1300
Łajski,52.4167,20.95,1300
Łubno,49.8167,22.1667,1300
Żywocice,50.4583,17.9667,1300
Zborowice,49.75,20.9667,1300
Zwierzyn,52.8333,15.5667,1300
Łazy,52.0822,20.8786,1300
Łęki,49.95,19.2167,1300
Mrowla,50.0961,21.9133,1300
Rogóźno,50.4667,23.3833,1300
Rokiciny-Kolonia,51.6647,19.7808,1300
Stara Łubianka,53.2333,16.6833,1300
Starowa Góra,51.7,19.4833,1300
Latchorzew,52.2333,20.85,1297
Dalachów,51.0767,18.5856,1295
Wisła Mała,49.95,18.8,1295
Trześń,50.3333,21.5,1291
Rzędzianowice,50.3153,21.3953,1289
Bedoń Przykościelny,51.74,19.63,1289
Przodkowo,54.3797,18.2875,1286
Biery,49.7964,18.9132,1284
Złochowice,50.9167,18.8167,1283
Gorzyce,50.1297,22.5783,1282
Lisewo Malborskie,54.0975,18.8297,1280
Brojce,53.9567,15.3672,1279
Łopuszno,50.9486,20.2508,1279
Krynki,51.0125,21.2067,1273
Bobowo,53.8842,18.5561,1271
Kieźliny,53.8211,20.51,1270
Łąka Prudnicka,50.3111,17.5272,1270
Gronowo Górne,54.1369,19.4567,1270
Stare Strącze,51.85,16.15,1269
Miedary,50.4569,18.7631,1267
Radziłów,53.4108,22.41,1267
Chłapowo,54.7154,18.6331,1264
Zbytków,49.9231,18.7283,1262
Ulhówek,50.4497,23.7797,1262
Ścinawka Dolna,50.5167,16.5,1261
Perki-Karpie,52.9733,22.7533,1260
Przeworno,50.6833,17.1667,1259
Grojec,50.0872,19.5619,1259
Kaniów,50.9872,20.6628,1257
Grodziec,49.8004,18.8678,1256
Markuszów,51.3667,22.2667,1256
Zwonowice,50.15,18.45,1255
Czerna,50.1725,19.6225,1252
Gierałtowice,49.9333,19.4,1252
Sopotnia Mała,49.6,19.2667,1251
Jabłoń,51.7167,23.0833,1251
Wojkowice Kościelne,50.4,19.2,1251
Nowa Wieś,52.6925,16.3942,1251
Paczkowo,52.4,17.15,1251
Paczyna,50.4,18.55,1251
Kobyle,49.9167,20.5167,1250
Baranowo,53.175,21.2953,1250
Mąkolice,52.0117,19.5683,1250
Blok Dobryszyce,51.1244,19.45,1250
Pięczkowo,52.1186,17.4483,1250
Nowa Wieś,50.0969,22.0453,1249
Redzikowo-Osiedle,54.4717,17.1175,1246
Kamyk,50.9014,19.0278,1245
Trąbki Wielkie,54.1697,18.5397,1240
Damnica,54.5019,17.2703,1240
Malec,49.9333,19.25,1239
Gąsocin,52.7414,20.7131,1238
Ponikiew,49.8167,19.45,1237
Łagów,51.1578,15.0436,1236
Jurków,49.85,20.6833,1234
Niepruszewo,52.3858,16.6047,1234
Miękinia,50.1667,19.6,1233
Ocieka,50.1333,21.5833,1233
Białobrzegi,52.4436,21.0581,1232
Starcza,50.65,19.0333,1232
Cisów,50.7592,20.8981,1232
Antoniów,50.6833,18.1833,1227
Gruszczyn,52.4297,17.0714,1224
Nosówka,50.0167,21.8667,1223
Przyrów,50.8,19.5167,1222
Kajetanów,50.945,20.6953,1221
Brudzowice,50.5,19.1833,1221
Osjaków,51.2883,18.7925,1221
Żabi Róg,53.8833,20.0167,1220
Leśniewo,54.6942,18.24,1219
Rymań,53.9458,15.5311,1214
Bachórz,49.8333,22.2833,1214
Opatów,50.9614,18.8253,1213
Raków,50.6736,21.0456,1213
Woźniki,49.9374,19.4913,1213
Bukowiec,53.4317,18.2389,1210
Golasowice,49.9244,18.6933,1210
Dobroń,51.6381,19.2447,1210
Przyjaźń,54.3103,18.3914,1206
Leszczydół-Nowiny,52.6467,21.4639,1205
Twardorzeczka,49.65,19.0833,1204
Nasiegniewo,52.6886,19.1514,1203
Bluszczów,49.9936,18.3317,1201
Kup,50.8,17.8833,1200
Kłoda,51.7667,16.6667,1200
Lewin Kłodzki,50.4167,16.2833,1200
Raczyce,51.5833,17.6333,1200
Iskrzynia,49.6836,21.8558,1200
Jadów,52.4667,21.6333,1200
Ruda Różaniecka,50.3167,23.1833,1200
Zegrze Południowe,52.4558,21.0083,1200
Balice,50.0861,19.7972,1200
Bieńkowice,50.0333,18.2167,1200
Bobrowniki,52.0644,20.0194,1200
Borek,50.0167,20.5167,1200
Brzeźno,51.1658,23.6297,1200
Brzozowica Duża,51.95,22.6167,1200
Brzóza Stadnicka,50.2,22.2833,1200
Bytnica,52.1503,15.1692,1200
Pawlikowice,49.9167,20.0833,1200
Przyborów,51.7992,15.7678,1200
Pławno,50.9778,19.4556,1200
Stolec,50.6,16.8833,1200
Suche,49.3369,19.9828,1200
Żychlin,52.1833,18.2667,1200
Sulęcinek,52.1333,17.3167,1200
Radowo Małe,53.65,15.45,1200
Szreńsk,53.0167,20.1167,1200
Brenno,51.9333,16.2167,1200
Brynica,50.8333,17.6667,1200
Brzeźnica,49.9667,19.6333,1200
Brzozowica,52.3333,21.6833,1200
Dys,51.3167,22.5667,1200
Cerkwica,54.0167,15.1167,1200
Mała Wieś,52.45,20.1,1200
Mirków,51.1667,17.1569,1200
Cyców,51.3,23.15,1200
Daniszyn,51.6556,17.6375,1200
Nockowa,50.0167,21.7833,1200
Wawelno,50.6567,17.7617,1200
Bowallno,50.6567,17.7617,1200
Wawrów,52.75,15.2833,1200
Bojadła,51.95,15.8167,1200
Bojanów,50.4,21.95,1200
Stara Kamienica,50.9178,15.5636,1200
Lipce Reymontowskie,51.8983,19.9408,1200
Horodło,50.8833,24.0333,1200
Gródek,53.5003,18.3589,1200
Gumniska,50.0042,21.3947,1200
Jaksice,52.8667,18.2,1200
Jasieniec,51.8333,20.9333,1200
Jawornik,49.8461,21.8933,1200
Nowosielce,49.5667,22.0667,1200
Opatów,51.2139,18.1458,1200
Ostrowy,52.3036,19.1617,1200
Krempachy,49.4333,20.15,1200
Konieczno,50.7911,20.0333,1200
Kramsk,52.25,18.4167,1200
Kurzelów,50.8833,19.8833,1200
Nowe Bystre,49.3403,19.9228,1200
Ochodze,50.6167,17.8167,1200
Ochotz,50.6167,17.8167,1200
Topola Mała,51.6333,17.7667,1200
Trzcianka,52.6481,21.5539,1200
Turów,51.85,22.7,1200
Leśnica,49.4,20.0667,1200
Lipki Wielkie,52.7167,15.5167,1200
Lniano,53.5281,18.2144,1200
Nowe Lipiny,52.3574,21.2728,1200
Wijewo,51.9167,16.2,1200
Chronstau,50.6644,18.0692,1200
Chrząstowice,50.6644,18.0692,1200
Chrzan,52.0694,17.5069,1200
Chrzęsne,52.45,21.4833,1200
Chyżne,49.4333,19.6667,1200
Cieklin,49.65,21.3833,1200
Cieniawa,49.6167,20.85,1200
Ciepłowody,50.6667,16.9,1200
Serby,51.6833,16.1167,1200
Siedlec,52.1333,16.0167,1200
Smolice,51.7,17.1667,1200
Sokolniki,51.3069,18.3414,1200
Sosnówka,50.8217,15.7203,1200
Stanowice,50.9311,16.3736,1200
Gierałtów,51.2031,15.3108,1200
Skorogoszcz,50.75,17.7,1200
Tarnowiec,49.75,21.5833,1200
Golubka,53.8614,22.5364,1200
Grabowno Wielkie,51.3497,17.4181,1200
Grądy-Woniecko,53.15,22.4,1200
Skrzyńsko,51.3833,20.65,1200
Tarchały Wielkie,51.6,17.7,1200
Żelków-Kolonia,52.1408,22.2072,1200
Dobrzyniewo Duże,53.2,23.0167,1200
Dołuje,53.4372,14.41,1200
Drzycim,53.5133,18.3164,1200
Wielowieś,51.6,18.0833,1200
Wierzchowiny,51.6197,22.7044,1200
Wilczyn,52.4886,18.1619,1200
Wolica,50.7522,20.4794,1200
Zarzecze,50.3667,19.7,1200
Zawada,50.7136,17.9936,1200
Łukowa,50.1,20.9833,1200
Łękawica,49.8333,19.5667,1200
Pamiątkowo,52.5533,16.6806,1200
Międzyborów,52.0667,20.5,1200
Rogóźno,50.075,22.3733,1200
Nienaszów,49.6333,21.5833,1200
Nieświń,51.2294,20.4744,1200
Orońsko,51.3167,20.9833,1200
Opacz Kolonia,52.1716,20.8965,1200
Palikówka,50.0833,22.15,1200
Sadowne,52.65,21.85,1200
Świbie,50.5,18.5333,1198
Sarnaki,52.3167,22.8833,1194
Bażanowice,49.7372,18.7046,1194
Bojszowy Nowe,50.0433,19.0683,1192
Grabówka,53.1264,23.2581,1191
Korbielów,49.5742,19.3425,1191
Grzybno,54.3522,18.2181,1189
Kołczygłowy,54.2397,17.2267,1188
Wilkszyn,51.1917,16.8625,1188
Lisie Jamy,50.1333,23.1667,1187
Bukowa,50.8614,20.2086,1186
Wysocko Małe,51.6,17.8333,1186
Poręba,49.7967,20.0178,1178
Lipno,51.9175,16.56,1176
Chocianowice,50.9333,18.2833,1170
Gałowo-Majątek,52.5925,16.5689,1170
Szczepańcowa,49.6833,21.7,1169
Staniszcze Wielkie,50.6489,18.3489,1169
Modlnica,50.1292,19.8669,1164
Miasteczko Krajeńskie,53.0833,17.0,1163
Międzyrzecze Dolne,49.8622,18.9558,1163
Pęzino,53.3333,15.2,1162
Nowe Iganie,52.1728,22.1989,1162
Witanowice,49.9333,19.55,1162
Tłuchowo,52.75,19.4667,1159
Tereszpol,50.5786,22.88,1157
Matysówka,49.9831,22.05,1157
Brodnica Górna,54.27,18.0822,1156
Olszana,49.5667,20.5167,1155
Trzebieszowice,50.35,16.7667,1155
Grabowo Kościerskie,54.1675,18.1467,1153
Lipniki,53.3167,21.5167,1152
Dubiecko,49.8256,22.39,1150
Radostowo,53.985,20.6058,1150
Brzeźnio,51.4947,18.6219,1150
Kawnice,52.2472,18.1503,1149
Jordanów Śląski,50.8619,16.8658,1148
Bolechowo-Osiedle,52.5364,16.9786,1147
Kusięta,50.7667,19.2333,1147
Księżpol,50.4167,22.7333,1145
Śmiłowo,53.1333,16.9333,1145
Nierada,50.7,19.0667,1145
Ustrobna,49.75,21.7,1143
Bartkowa,49.7667,20.75,1143
Wierzbica Górna,51.0278,17.9794,1141
Mojęcice,51.3,16.5833,1141
Purda,53.7167,20.7,1140
Brzezówka,50.0706,21.5489,1138
Pacanów,50.4,21.05,1137
Magdalenka,52.0967,20.9092,1136
Łąg,53.8292,18.0644,1135
Osowa Sień,51.8378,16.3372,1132
Witonia,52.15,19.3,1130
Mościsko,50.7808,16.5889,1128
Kiczyce,49.8297,18.81,1127
Samsonów,50.9914,20.6242,1125
Pogórze,54.5653,18.4781,1123
Krasocin,50.8892,20.1175,1123
Dretyń,54.1044,16.9822,1123
Nowy Kisielin,51.9333,15.6,1121
Kleszczewo Kościerskie,53.9956,18.3922,1120
Lipiny Dolne,50.4167,22.4667,1120
Stare Oborzyska,52.11,16.6992,1120
Czułów,50.05,19.7,1119
Mników,50.0667,19.7333,1117
Lipie,51.0117,18.8008,1117
Oleszno,50.9425,20.0456,1117
Niestępowo,54.3192,18.4261,1117
Sanka,50.0667,19.65,1116
Moszczanka,50.3008,17.4911,1116
Poręba Żegoty,50.0667,19.5667,1115
Jagiełła,50.11,22.5681,1114
Nowa Jastrząbka,50.1167,21.1333,1114
Chełmica Duża,52.7333,19.15,1114
Dobrzykowice,51.0961,17.1925,1114
Otmice,50.55,18.15,1114
Gnieżdżewo,54.7458,18.3789,1113
Waleńczów,50.9269,18.8661,1112
Czarna Dąbrówka,54.35,17.55,1112
Barycz,49.8122,22.0406,1110
Wola Osowińska,51.7333,22.4667,1110
Suchy Dąb,54.2067,18.7675,1110
Brańszczyk Nad Bugiem,52.6333,21.6,1109
Zbludowice,50.4467,20.7267,1108
Mareza,53.7367,18.915,1108
Udorpie,54.1431,17.4897,1107
Cianowice Duże,50.2042,19.8803,1107
Grabiny-Zameczek,54.2381,18.7497,1106
Milanów,51.7031,22.8772,1105
Kolonia Fryderyk,49.9689,18.42,1105
Złoty Potok,50.7069,19.4314,1101
Kawęczyn Sędziszowski,50.0667,21.7333,1100
Wodzisław,50.52,20.1906,1100
Świba,51.3,18.0833,1100
Jurków,49.6833,20.2333,1100
Kamień,51.8333,18.2333,1100
Kozłów,50.485,20.0239,1100
Kruklanki,54.0883,21.9225,1100
Kunice,51.2242,16.2478,1100
Ratowice,51.0339,17.2692,1100
Redło,53.7667,15.9667,1100
Gardno,53.26,14.62,1100
Izbicko,50.5833,18.15,1100
Stubendorf,50.5833,18.15,1100
Jabłonka,49.6936,22.1147,1100
Parysów,51.9667,21.6833,1100
Rozkopaczew,51.4167,22.85,1100
Rudołtowice,49.9667,19.0,1100
Rząśnia,51.2208,19.0411,1100
Rąbino,53.8661,15.9428,1100
Wodzisław,50.52,20.1906,1100
Wojcieszków,51.7667,22.3167,1100
Wąsowo,52.3667,16.25,1100
Biała,51.7861,22.5725,1100
Biskupice,52.4617,17.1694,1100
Biskupice Radłowskie,50.1333,20.8667,1100
Bogdaniec,52.6833,15.0667,1100
Brzóza,51.6,21.35,1100
Brąszewice,51.4981,18.4497,1100
Burzenin,51.4603,18.83,1100
Pawłów,50.9664,21.1097,1100
Strzałków,51.0503,19.4892,1100
Strzelce Wielkie,51.1394,19.145,1100
Strzyżew,51.5833,17.9667,1100
Sułkowice,51.9269,21.0964,1100
Skrzynice,51.1236,22.6269,1100
Manieczki,52.1167,16.9333,1100
Murzasichle,49.3117,20.0436,1100
Deszczno,52.6667,15.3167,1100
Łobzów,50.4044,19.7678,1100
Michalów,50.75,23.0167,1100
Milcza,49.6167,21.9167,1100
Milejczyce,52.5167,23.1333,1100
Przytoczno,51.6167,22.2667,1100
Pustynia,50.0833,21.45,1100
Brzeźnica,49.95,20.4667,1100
Budzów,50.5856,16.6994,1100
Błędów,51.7792,20.6964,1100
Czajków,51.4878,18.3267,1100
Czerna,51.2233,15.3547,1100
Cygany,50.5167,21.7,1100
Daleszewo,53.3144,14.5342,1100
Rudna Mała,50.0978,21.9594,1100
Walichnowy,51.3,18.3833,1100
Bolmin,50.8081,20.3517,1100
Bratoszewice,51.9333,19.6667,1100
Trablice,51.35,21.1333,1100
Spychowo,53.6011,21.3461,1100
Długie,51.6542,15.6453,1100
Gródek,49.6314,21.0061,1100
Jenin,52.6833,15.0833,1100
Nowa Wieś,52.5147,16.5731,1100
Olszanica,51.2,15.8,1100
Orla,52.7072,23.33,1100
Jaworznia,50.8639,20.4833,1100
Kobylany,49.6094,21.6464,1100
Konary,51.6667,17.05,1100
Krowiarki,50.1333,18.0667,1100
Krężnica Jara,51.15,22.4833,1100
Raszczyce,50.1167,18.3,1100
Stary Węgliniec,51.3,15.2,1100
Fałków,51.1347,20.1022,1100
Olszanica,49.4667,22.45,1100
Barciany,54.2167,21.35,1100
Bażanówka,49.6,22.05,1100
Dąbrowa,50.6817,17.7464,1100
Topola,50.3,20.45,1100
Turza,49.765,21.0647,1100
Turzyn,52.6167,21.5167,1100
Rozwadza,50.4333,18.1,1100
Zabrzeż,49.5436,20.3956,1100
Licheń Stary,52.3233,18.36,1100
Przedmieście Dubieckie,49.85,22.3667,1100
Uście Gorlickie,49.5217,21.1386,1100
Tęgoborze,49.7078,20.6414,1100
Zakrzów,49.8258,19.6525,1100
Teodorówka,49.5539,21.6481,1100
Cierpice,52.9847,18.4919,1100
Chynowa,51.5667,17.9167,1100
Ciechanowice,50.8911,15.9883,1100
Sieniawa,52.3667,15.3667,1100
Sromowce Niżne,49.4,20.4167,1100
Sromowce Wyżne,49.4167,20.35,1100
Stanisławice,51.5719,21.4808,1100
Garzyn,51.8667,16.7833,1100
Gielniów,51.3833,20.4833,1100
Górażdże,50.5333,18.0167,1100
Lubatówka,49.5833,21.75,1100
Siemkowice,51.2,18.9,1100
Zmiennica,49.7,21.9667,1100
Żarnowiec,49.6892,21.6689,1100
Żeleźnikowa Wielka,49.5667,20.7,1100
Dobieżyn,52.3275,16.5383,1100
Wojnowice,50.05,18.15,1100
Zajezierze,51.5428,21.8078,1100
Zieleniewo,54.15,15.5667,1100
Złotniki,52.4833,16.8333,1100
Łazy,49.9833,22.8667,1100
Łyszkowice,51.9833,19.9167,1100
Papowo Toruńskie,53.0715,18.628,1100
Igołomia,50.0889,20.2394,1100
Kaszyce,49.9042,22.7394,1100
Pogrzebień,50.0667,18.3,1100
Mokrzeszów,50.8506,16.3703,1100
Mrozów,51.1878,16.7878,1100
Mójcza,50.8419,20.6819,1100
Nawsie Brzosteckie,49.8833,21.4667,1100
Opolno-Zdrój,50.8833,14.9306,1100
Palcza,49.8125,19.7425,1100
Podole,50.1786,21.4708,1100
Łęki Strzyżowskie,49.8089,21.6608,1100
Stoszowice,50.6,16.7333,1100
Strachocina,49.6167,22.1,1100
Librantowa,49.6658,20.7553,1099
Roztoka,50.9664,16.2317,1098
Czernichów,49.75,19.2,1098
Kamieniec,52.1667,16.4667,1098
Dąbrowica,51.2667,22.45,1095
Piotrowice,51.1,22.5,1093
Czerwonka,53.9092,20.9081,1090
Sycewice,54.4214,16.8608,1089
Chlewiska,51.2436,20.7608,1089
Smolnica,50.25,18.55,1089
Stara Kornica,52.1667,22.85,1088
Pobierowo,54.0572,14.9281,1084
Zamość,53.0722,17.8103,1083
Kielanówka,50.0167,21.9167,1081
Międzyświeć,49.7882,18.7653,1081
Bodzanowice,50.9067,18.6231,1080
Lelkowo,54.3244,20.2247,1080
Chodów,52.2167,22.2333,1080
Jabłonica Polska,49.7,21.9,1076
Ruda-Huta,51.2333,23.5667,1076
Kaszczor,51.9586,16.1636,1070
Jastrzębia Góra,54.8314,18.3128,1068
Raciborsko,49.95,20.0833,1067
Ostrężnica,50.1833,19.5667,1065
Rudno,50.3333,18.45,1064
Brzozówka,50.0594,21.0156,1064
Szybowice,50.3519,17.4808,1064
Osiek,52.9269,18.805,1064
Kruchowo,52.6167,17.8,1064
Dzietrzniki,51.1142,18.6164,1064
Wojnowice,52.3333,16.4667,1064
Wojakowa,49.8167,20.5667,1063
Strzelno,54.7853,18.3247,1063
Bukowina,50.3769,22.6736,1063
Wielka Wieś,50.1564,19.8433,1063
Urzędów,50.9833,22.15,1060
Wola Radłowska,50.0956,20.8175,1060
Serokomla,51.7003,22.3328,1060
Dąbrowa,50.9083,20.6875,1059
Osowo,53.8731,17.8911,1058
Pustyny,49.6586,21.8339,1057
Przebieczany,49.9833,20.1167,1055
Liniewo,54.0758,18.2269,1052
Grzybowa Góra,51.1311,20.9719,1052
Mały Płock,53.3,22.0167,1051
Brójce,52.3,15.6667,1050
Barczewko,53.85,20.5881,1050
Wilkowiecko,50.95,18.85,1049
Goraj,50.7167,22.65,1048
Klęczany,49.6661,20.6311,1048
Bramki,52.2,20.5167,1047
Piotrowice,51.0608,16.1439,1046
Bełsznica,49.9833,18.3667,1046
Łężyca,51.9833,15.4833,1046
Nieledwia,49.5444,19.07,1046
Dubienka,51.05,23.8833,1042
Różnowo,53.8667,20.5167,1041
Brzeźce,49.9667,18.8167,1041
Wąwolnica,51.2931,22.1444,1041
Budziszewko,52.7,17.0833,1040
Mysłaków,52.0897,20.0158,1040
Osiny,51.4667,22.0667,1040
Tur,53.0833,17.7333,1040
Turze Pole,49.6624,22.0013,1040
Siecień,52.6136,19.5194,1040
Parkowo,52.7,16.9167,1040
Jezierzyce-Osiedle,54.5047,17.1244,1039
Laliki,49.5333,19.0,1039
Młyńczyska,49.6167,20.4167,1037
Turobin,50.825,22.7444,1036
Rekowo Górne,54.6417,18.3397,1036
Wysoka,51.0458,17.0083,1036
Zakrzów,50.2494,18.1556,1035
Widzów,50.9667,19.3667,1034
Nowy Korczyn,50.2992,20.8089,1032
Waplewo Wielkie,53.9292,19.2342,1032
Ząbrowo,53.6333,19.45,1032
Dolna Grupa,53.4958,18.6803,1030
Łazy,51.9164,22.4211,1030
Czarny Las,50.8833,19.0833,1029
Krzyżowice,49.9856,18.6728,1028
Rzędy,54.0483,19.6911,1028
Bronów,49.878,18.9216,1027
Gogołowa,50.0,18.6,1027
Kolonia Poczesna,50.7,19.15,1026
Czapury,52.3333,16.9167,1025
Ziemięcice,50.3667,18.7167,1025
Uciechów,51.5667,17.5833,1025
Kozłów,50.3,18.55,1024
Tuchom,54.4294,18.3903,1024
Janik,50.9744,21.3197,1024
Józefów nad Wisłą,51.0408,21.8292,1023
Czastary,51.2592,18.3194,1023
Modliszów,50.7931,16.3922,1023
Frydek,49.9167,19.0833,1020
Bukowiec,52.2933,16.2467,1020
Stachlew,52.0064,20.0258,1020
Kłodne,49.685,20.5661,1020
Dobryszyce,51.1453,19.4061,1020
Parchowo,54.2064,17.6681,1019
Iłownica,49.8704,18.8571,1018
Stanisław Górny,49.9167,19.6333,1017
Ostaszewo,54.2183,18.9472,1017
Kajkowo,53.6667,19.9667,1017
Bębło,50.1833,19.7833,1015
Sieroszewice,51.6331,17.9714,1014
Wola Rusinowska,50.3667,21.8333,1013
Kocierz Moszczanicki,49.7333,19.25,1013
Skrzeszewo Żukowskie,54.285,18.3514,1013
Bogucin,52.4333,17.0167,1012
Bystry,54.0233,21.8064,1012
Lubiewo,53.4669,18.0183,1012
Osiek,53.7219,18.4908,1012
Podzamcze,50.4547,19.5475,1011
Miechucino,54.3333,18.0167,1011
Basznia Dolna,50.1797,23.2122,1011
Rokitki,51.3397,15.8947,1010
Runowo,54.15,20.4333,1010
Mazury,50.2639,22.0625,1010
Blizne Jasińskiego,52.2333,20.8667,1010
Mściszewice,54.2608,17.8544,1010
Wola Kopcowa,50.8806,20.7125,1010
Jantar,54.3358,19.0331,1008
Cedry Wielkie,54.2442,18.8456,1007
Gola,51.8789,16.9622,1007
Sokołowo,52.3469,17.5664,1007
Kołaczkowo,53.0306,17.7892,1006
Brodła,50.05,19.6,1005
Zaborze,49.8715,18.8098,1005
Hutki,50.6811,19.0064,1004
Bilczyce,49.95,20.1833,1003
Mykanów,50.9167,19.1833,1002
Czerwone,53.4167,21.8833,1001
Ociąż,51.7167,17.9333,1000
Tąpkowice,50.4492,19.0156,1000
Unieście,54.2678,16.0867,1000
Zaleszany,50.65,21.9,1000
Kolnica,50.7508,17.3419,1000
Koryta,51.8,17.7,1000
Kowalów,52.4006,14.7597,1000
Krasne,52.9211,20.9689,1000
Kuny,52.15,18.4333,1000
Kąty,49.5608,21.5206,1000
Sadłowo,53.0833,19.5167,1000
Frygnowo,53.5167,20.0833,1000
Jachówka,49.7667,19.7,1000
Jaczów,51.6333,16.0833,1000
Łukta,53.8053,20.0853,1000
Rososzyca,51.6333,18.0167,1000
Rzuchów,50.0644,18.3642,1000
Rączyna,49.9167,22.45,1000
Wełtyń,53.2589,14.5778,1000
Zendek,50.5,19.0833,1000
Andrzejewo,52.8306,22.2017,1000
Biała,53.0456,16.5397,1000
Siedliska-Bogusz,49.9,21.4,1000
Piotrówka,50.5667,18.3833,1000
Petersgrätz,50.5667,18.3833,1000
Przybysławice,51.7,17.7,1000
Sucha,51.6203,20.9467,1000
Sułków,49.9889,20.0986,1000
Szkaradowo,51.5833,17.15,1000
Żydowo,54.0422,16.7158,1000
Szczuki,52.9333,20.9833,1000
Wzdów,49.6167,22.0167,1000
Murzynowo,52.6333,15.45,1000
Skokowa,51.3833,16.85,1000
Miastkowo,53.1667,21.8167,1000
Miały,52.8,16.1833,1000
Przybędza,49.6167,19.1167,1000
Przychojec,50.3,22.4,1000
Żarnowa,49.8744,21.8181,1000
Brzezie,49.9833,20.2167,1000
Bukowiec,51.6833,19.6667,1000
Czekanów,50.3469,18.7336,1000
Dobrów,52.15,18.6333,1000
Bednary-Wieś,52.1044,20.0603,1000
Bieliny Poduchowne,50.8506,20.9506,1000
Bielowice,51.4,20.3833,1000
Bircza,49.6922,22.4794,1000
Czernica,51.0464,17.2439,1000
Wolkowe,53.4161,21.3892,1000
Fasty,53.1692,23.0622,1000
Wesoła,49.8,22.0833,1000
Bochotnica,51.3333,21.9833,1000
Boruszowice,50.5167,18.7667,1000
Żdżary,50.0372,21.2,1000
Świeligów,51.6667,17.75,1000
Rzeczyca Ziemiańska,50.85,22.1833,1000
Stare Dłutowo,53.19,19.9525,1000
Wysocko Wielkie,51.6333,17.85,1000
Luboszyce,50.7333,17.9667,1000
Lubsza,50.6092,19.0,1000
Huta Nowa,50.8433,20.9828,1000
Jareniówka,49.7667,21.45,1000
Jartypory,52.4167,22.1,1000
Jasienna,49.7139,20.8289,1000
Jegłownik,54.1222,19.2947,1000
Jeziory Małe,52.1667,17.15,1000
Skrzyszów,50.0667,21.55,1000
Wielki Komorsk,53.5833,18.6667,1000
Dębnica,51.55,17.7833,1000
Głuchów,51.7833,20.0667,1000
Jacków,51.2303,22.7369,1000
Jadwisin,52.4789,21.0439,1000
Janowo,53.3167,20.6667,1000
Jarosławiec,52.25,17.2333,1000
Jaśkowice,49.9667,19.6833,1000
Nowa Wieś,49.5097,20.8875,1000
Objezierze,53.0833,15.55,1000
Olszowa,51.2958,18.0433,1000
Osiecznica,51.3275,15.4194,1000
Osiecznica,52.0667,15.0333,1000
Osiek,51.3667,16.2333,1000
Sobótka,51.7667,17.85,1000
Kolsko,51.9667,15.9667,1000
Korzeńsko,51.5333,16.8833,1000
Kraczewice Prywatne,51.2017,22.1,1000
Kruszyn Krajeński,53.0811,17.8753,1000
Krzywa,50.1014,21.7358,1000
Lasek,49.5167,19.9833,1000
Swędów,51.9167,19.55,1000
Reguły,52.1703,20.8594,1000
Janowiec,51.3247,21.8831,1000
Nowy Świętów,50.3736,17.36,1000
Bańska Niżna,49.4,20.0167,1000
Dylągówka,49.9167,22.2167,1000
Dzietrzkowice,51.1667,18.3167,1000
Dziwiszów,50.9394,15.7853,1000
Dąbcze,51.8333,16.65,1000
Dąbrowa,51.2314,18.5411,1000
Dąbrówka Górna,50.55,17.9333,1000
Dłutów,51.5586,19.39,1000
Elgiszewo,53.0667,18.9167,1000
Uciechów,50.75,16.6667,1000
Firlej,51.5581,22.5081,1000
Malachin,53.8147,17.9553,1000
Przecieszyn,49.9667,19.1833,1000
Tworkowa,49.8667,20.6667,1000
Młodocin Mniejszy,51.35,21.0333,1000
Pińczyce,50.55,19.25,1000
Łubnice-Krusze,53.0469,22.3008,1000
Stare Pieścirogi,52.5833,20.75,1000
Chełmce,50.9322,20.4914,1000
Chełmo,51.0667,19.75,1000
Chludowo,52.55,16.85,1000
Chwałowice,50.7667,21.9,1000
Siedlisko,52.9833,16.3833,1000
Sieniawa,49.555,21.9264,1000
Sienno,51.0894,21.4767,1000
Sobolewo,53.1167,23.2833,1000
Sowina,49.8281,21.4708,1000
Giby,54.0333,23.3667,1000
Wiżajny,54.3897,22.865,1000
Golenice,52.9333,14.7833,1000
Goszczanowiec,52.75,15.6167,1000
Góra Motyczna,50.0964,21.3733,1000
Górka Duchowna,51.95,16.6,1000
Lubań,54.1203,18.1622,1000
Lutocin,52.9833,19.7667,1000
Siennica Różana,51.0006,23.3122,1000
Szpęgawa,54.0978,18.7339,1000
Sękocin Stary,52.1,20.8833,1000
Zwardoń,49.5167,18.9833,1000
Łaszczówka,50.45,23.4333,1000
Śmielin,53.1511,17.4863,1000
Drohobyczka,49.8667,22.35,1000
Wilga,51.8531,21.3792,1000
Wilkowo,52.2544,15.4642,1000
Witków,50.7969,16.1308,1000
Wojcieszyce,50.8833,15.6333,1000
Wójtowo,53.7894,20.5978,1000
Łazy,49.9667,20.5,1000
Mszalnica,49.5833,20.8,1000
Kanie,52.1311,20.7722,1000
Strawczyn,50.9419,20.42,1000
Wola Zambrowska,52.9667,22.2667,1000
Nehrybka,49.7667,22.8,1000
Niemojki,52.2667,22.7,1000
Osiedle Nowy Glinnik,51.5667,20.0667,1000
Ostrożnica,50.2439,18.0831,1000
Sośnie,51.4667,17.6167,1000
Stara Słupia,50.8594,21.1078,1000
Sławacinek Stary,52.0314,23.0736,1000
Stary Targ,53.9231,19.1664,1000
Swaty,51.6333,21.9,1000
Babienica,50.6242,18.9733,997
Wola Łużańska,49.7,21.0667,996
Borowe,50.8167,18.8667,996
Simoradz,49.8167,18.7667,996
Iwanowice Duże,50.9667,18.8,995
Jasin,52.4,17.1,994
Kuczów,51.0028,21.1264,993
Kowala,51.3247,21.0703,990
Bydlin,50.3833,19.65,990
Potworów,51.5167,20.7167,990
Leśmierz,52.0167,19.2833,990
Mełgiew,51.2167,22.7833,990
Micigózd,50.8994,20.4575,990
Przytyk,51.4667,20.9,990
Rachanie,50.5333,23.55,990
Osiek,53.1667,19.3833,990
Świerże,51.2167,23.7333,990
Kościerzyce,50.8667,17.5167,990
Dąbrowa,50.0042,20.2514,990
Lubanowo,53.1294,14.6122,990
Złota,50.6586,21.6794,990
Płośnica,53.2833,20.0167,990
Pielnia,49.55,22.0667,990
Straduny,53.8833,22.35,990
Stary Widzim,52.0833,16.1333,990
Tuchorza,52.1833,16.05,989
Dąbrowa,50.0586,21.8097,989
Krostoszowice,49.958,18.4743,988
Gać,53.0794,22.2461,986
Odrano-Wola,52.0914,20.6403,986
Smołdzino,54.6633,17.2136,984
Glinica,50.7167,18.6333,984
Różanka,51.6167,23.5333,983
Bogucin,51.3333,22.35,983
Batorz,50.85,22.4833,982
Udanin,51.0369,16.4533,982
Sadek,51.2,20.9,981
Gębice,52.5989,18.0389,981
Laskowice,50.8333,18.1167,980
Rusocin,54.2283,18.6264,980
Wiązowna,52.1667,21.3167,980
Bobrowniki,52.7767,18.9572,980
Podstolice,49.95,20.0,980
Denkówek,50.9183,21.4003,980
Buczek,51.5,19.1667,980
Mielnik,52.3333,23.05,980
Pyrzowice,50.4667,19.0667,980
Rogów Sobócki,50.9286,16.7589,980
Wola Okrzejska,51.75,22.1333,980
Górki,52.7856,15.4994,980
Osiek,51.3686,18.2,980
Jeziernia,50.4119,23.4144,980
Dąbie,50.1475,21.2944,980
Choceń,52.4847,19.0175,980
Cieszyna,49.8833,21.6,980
Sokolniki,50.6392,19.5986,980
Kacwin,49.3667,20.2833,980
Kandyty,54.3169,20.3694,980
Sośno,53.3897,17.6864,980
Zrębice,50.7167,19.3167,976
Gołaszyn,51.95,22.35,975
Pakosław,51.1917,21.1756,975
Glinno,52.3333,16.1167,974
Łebno,54.4617,18.1403,974
Świerczyniec,50.05,19.0333,973
Rykoszyn,50.8592,20.4033,970
Brzeżno,53.7167,15.7667,970
Budzisław Kościelny,52.4333,18.0833,970
Daszewice,52.3,16.9667,970
Czeszów,51.3833,17.25,970
Zatory,52.6,21.1833,970
Olszany,50.9167,16.35,970
Kmiecin,54.1883,19.1433,970
Zegrze,52.4619,21.0344,970
Sząbruk,53.7242,20.335,970
Smogorzów,51.3894,20.6089,970
Siecieborzyce,51.6697,15.5578,970
Wróblik Szlachecki,49.6167,21.8833,970
Brody,51.7903,14.7739,969
Kruszyna,50.9669,19.2736,968
Babice,50.3489,22.9247,966
Łęki,49.8289,20.0214,966
Pigża,53.1167,18.5333,966
Janów,50.7231,19.4314,964
Chroberz,50.4333,20.5667,964
Żytniów,51.0144,18.5681,963
Murowaniec,53.0933,17.8575,962
Krasne Potockie,49.6622,20.5889,962
Dębogórze,54.5914,18.4617,962
Dubeninki,54.2842,22.565,962
Korczyna,49.7,21.25,960
Leszczyny,50.8667,20.7833,960
Rzeszotary,51.25,16.1536,960
Franknowo,54.0347,20.7525,960
Marcyporęba,49.95,19.6167,960
Biała,51.1842,19.0269,960
Bielawa,52.1083,21.1303,960
Boguszyn,52.0667,17.35,960
Pawłów,51.1461,23.2122,960
Piątkowa,49.8897,22.155,960
Bierzglinek,52.305,17.5736,960
Rzepin Drugi,50.9797,21.1167,960
Borek Strzeliński,50.8831,17.0667,960
Objezierze,52.6047,16.7628,960
Odrowąż,51.1333,20.6494,960
Osina,53.6056,15.0136,960
Pakosław,52.4333,16.2333,960
Rudka Kozłowiecka,51.3667,22.5833,960
Nosków,51.9333,17.4,960
Bachorowice,49.9372,19.5836,960
Turzno,53.1067,18.7328,960
Gościeradów,50.8672,22.0022,960
Drawski Młyn,52.8667,16.0833,960
Złota,50.3794,20.5917,960
Rogóźno,53.5356,18.9281,960
Zawady,51.0333,18.9167,959
Bojszów,50.3333,18.4667,957
Okleśna,50.0333,19.5167,957
Jankowo Gdańskie,54.2956,18.5525,954
Stypułów,51.7,15.5333,954
Łubianka,53.1333,18.5,953
Kąty Opolskie,50.55,17.9667,952
Sienna,49.6667,19.1333,952
Zalesie,51.9367,22.3094,952
Lisów,51.4214,22.5814,951
Łubowo,52.5125,17.4544,951
Zabór,51.95,15.7167,950
Biały Kościół,50.1675,19.8275,950
Słupia,50.6008,19.9744,950
Bukownica,51.4689,18.0492,950
Dobra,53.4869,14.3842,950
Dobrocin,53.9081,19.8364,950
Biesowice,54.1942,16.8761,950
Uście Solne,50.1167,20.5333,950
Jeziorzany,51.9667,20.8167,950
Klonowa,51.4192,18.4175,950
Kosieczyn,52.2167,15.8167,950
Kurowice,51.6653,19.6858,950
Nagłowice,50.6792,20.1067,950
Oblęgorek,50.9533,20.4881,950
Bachórzec,49.8333,22.3333,950
Turowo,53.65,16.7167,950
Turze,50.1833,18.2667,950
Sokołowice,51.25,17.45,950
Mokra Prawa,51.9878,20.1131,950
Pokrzydowo,53.3333,19.4833,950
Szczepanów,50.0053,20.6556,949
Przybradz,49.95,19.4167,949
Uraz,51.25,16.85,949
Majków,51.0944,20.9117,948
Rodaki,50.396,19.5337,948
Boruja Kościelna,52.2667,16.1333,947
Zalesie,49.6231,20.3469,947
Bystra,49.6194,19.1875,946
Stróża-Kolonia,50.9,22.2833,944
Borkowice,50.9406,18.1564,943
Gromada,50.5667,22.7,941
Rogalin,53.3833,17.6333,940
Iwierzyce,50.0333,21.7667,940
Sade Budy,52.0591,20.4913,940
Wilkowo Polskie,52.0625,16.4336,940
Węgierka,49.9,22.55,940
Małęczyn,51.3781,21.2528,940
Czernina,51.7208,16.6158,940
Biesiekierz,54.1339,16.0386,940
Drzonowo,54.0956,15.435,940
Dzikowiec,50.5714,16.5728,940
Jankowa,49.7019,20.9039,940
Jeziorko,50.8936,21.0128,940
Kosmolów,50.2667,19.65,940
Strawczynek,50.9403,20.4461,940
Cholerzyn,50.0667,19.7667,940
Goszcz,51.3972,17.4772,940
Łąkta Dolna,49.8394,20.4006,940
Zaręby,53.3,21.0167,940
Ostojów,51.0169,20.8197,940
Tczyca,50.4239,19.8922,940
Nowe Pieścirogi,52.5667,20.75,940
Brudzeń Duży,52.6667,19.5,939
Wiślinka,54.3383,18.8019,939
Świątki,53.9167,20.2333,938
Siemonia,50.4167,19.05,937
Kowala,50.7953,20.5853,936
Dzwola,50.7,22.5667,936
Rudno,53.9361,18.7597,935
Bierna,49.7167,19.1667,933
Rększowice,50.7,19.0167,931
Karwia,54.8308,18.21,931
Chomranice,49.6761,20.5978,931
Karsibór,53.3569,16.4167,930
Leszkowice,51.55,22.6142,930
Radzanów,52.9333,20.0833,930
Krużlowa Niżna,49.6511,20.8719,930
Mokre,53.55,18.8167,930
Niegosławice,51.5881,15.7131,930
Lipinka,54.1228,19.1242,930
Okół,51.0269,21.6319,930
Stróżna,49.6969,20.9872,930
Bolimów,52.0764,20.1631,930
Grabianów,52.1333,22.2833,930
Grabów Szlachecki,51.7003,22.0978,930
Swojczany,50.4114,19.91,930
Zawada,49.8756,19.9617,930
Kiernozia,52.2686,19.87,930
Kotórz Mały,50.7333,18.05,930
Ostrowy Tuszowskie,50.3,21.65,930
Zajączki Drugie,50.9939,18.6925,928
Pyzówka,49.5333,19.95,928
Cedry Małe,54.2731,18.8614,927
Radzików-Wieś,52.2656,20.6444,927
Lubnia,53.9286,17.7519,927
Borkowo,54.3356,18.3389,926
Nowy Lubosz,52.0789,16.69,926
Rokitnica,54.2731,18.6842,924
Zajączki Pierwsze,51.0,18.7217,922
Nowa Cerekwia,50.0833,17.9167,922
Grabowiec,50.8211,23.5467,922
Bierkowo,54.4775,16.9292,921
Godzianów,51.8964,20.0367,921
Gorzanów,50.3519,16.6322,921
Górki Śląskie,50.1422,18.3903,921
Tuszów Narodowy,50.3667,21.4667,920
Marklowice Górne,49.8854,18.5868,920
Żołędowo,53.2167,18.0667,920
Radecznica,50.75,22.8333,920
Kotomierz,53.2833,18.1167,920
Liw,52.3833,21.95,920
Jasienica Dolna,50.5167,17.5,920
Odrowąż,49.4975,19.8539,920
Klembów,52.4,21.3167,920
Klęka,52.0833,17.4167,920
Świnice Warckie,52.0333,18.9167,920
Mściów,50.7114,21.8067,920
Chmielów,50.9372,21.3294,920
Chrzypsko Wielkie,52.6333,16.2333,920
Goszczyn,51.7303,20.8533,920
Sztabin,53.6833,23.1167,920
Dobkowice,49.9167,22.6833,920
Wojciechów,51.2356,22.2447,920
Wojcieszyce,52.7833,15.2667,920
Osieck,51.9667,21.4167,920
Nielisz,50.8,23.05,920
Stępina,49.8833,21.5667,920
Korzybie,54.3011,16.8769,919
Pustków Żurawski,50.9594,16.8661,919
Tereszpol-Kukiełki,50.5528,22.9311,919
Cisew,51.9833,18.4333,918
Jaszczów,51.2167,22.9333,917
Młynek,51.035,21.1969,915
Glinka,49.4622,19.1614,915
Staniszewo,54.3956,18.0764,915
Garczyn,54.0414,18.2403,914
Mirachowo,54.395,18.0278,913
Masłów Drugi,50.9158,20.7328,912
Jerzmanki,51.1167,15.05,912
Bożnowice,50.65,17.1167,911
Jaktorów,52.0833,20.5167,910
Pielgrzymka,51.1197,15.8153,910
Żegiestów,49.3833,20.8,910
Biały Bór,50.1833,21.5333,910
Bidziny,50.8408,21.6281,910
Marianowo,53.3822,15.2633,910
Galiny,54.1667,20.8333,910
Nowe Żukowice,50.0881,21.1372,910
Stromiec,51.6422,21.0911,909
Żytkiejmy,54.3333,22.6833,907
Unieszewo,53.7161,20.3106,906
Domaniewice,52.0061,19.8025,906
Zelgoszcz,53.8336,18.43,906
Rewa,54.6328,18.5103,905
Piotrów,50.7978,21.1553,904
Niechorze,54.0944,15.075,904
Łazy,49.8249,18.8905,903
Przodkowo Działki,54.3797,18.2958,901
Sobiałkowo,51.6667,16.9833,900
Jędrzejewo,52.8333,16.6,900
Kalisz,54.0444,17.7964,900
Kozłów,50.8261,20.1611,900
Rzeczyca,51.95,22.7333,900
Makowiec,51.3667,21.2333,900
Bolesławiec,51.1986,18.1906,900
Borów,50.8831,16.9903,900
Brzoskwinia,50.0833,19.7167,900
Będziemyśl,50.05,21.7833,900
Poręba,49.9883,18.8764,900
Studzianki,53.2333,23.2667,900
Szewce,51.2225,16.9772,900
Turawa,50.75,18.0667,900
Zawidz,52.8167,19.8667,900
Medynia Łańcucka,50.1306,22.1417,900
Przedmieście Dalsze,51.15,21.7,900
Biertowice,49.8833,19.8,900
Lamki,51.6575,17.7333,900
Nieborów,52.1333,20.1167,900
Brdów,52.35,18.7167,900
Solec-Zdrój,50.3664,20.8869,900
Ludwinów,52.4333,21.9833,900
Dąbie,51.9281,22.2636,900
Dąbrówka,50.05,20.5667,900
Dębice,53.535,15.1192,900
Gródek nad Dunajcem,49.7333,20.7167,900
Owczary,50.1736,19.9131,900
Konary,49.9442,19.9222,900
Krotoszyny,53.5025,19.3939,900
Przyprostynia,52.2333,15.9333,900
Okalewo,53.0667,19.6167,900
Oleszna,50.8,16.8167,900
Dąbrowa,50.9736,21.1414,900
Dłużyna Dolna,51.2333,15.1167,900
Leśna Podlaska,52.1344,23.0261,900
Cerekwica,52.8333,17.6333,900
Chełmce,51.6994,18.1708,900
Chotyłów,52.0,23.3667,900
Łąkorz,53.45,19.35,900
Zielkowice,52.0833,19.9833,900
Żarówka,50.1667,21.2333,900
Drelów,51.9167,22.8833,900
Wilków,51.1167,17.6667,900
Zajączków,50.8561,20.3497,900
Polskowola,51.9333,22.6667,900
Sucha Struga,49.4833,20.6833,900
Kamionka,50.4264,22.3386,899
Rudniki,51.0386,18.5961,897
Górzyn,51.8292,14.9786,894
Zławieś Wielka,53.0969,18.3267,894
Radomyśl nad Sanem,50.6833,21.95,893
Worgule,52.1,23.0,893
Rewal,54.0825,15.0186,893
Lipowina,54.3439,19.9817,892
Chełm,50.3592,19.7544,892
Ciechostowice,51.1667,20.7833,892
Sady,52.45,16.7333,891
Grodziszcze,50.7986,16.5567,891
Kopanica,52.0953,15.9217,890
Sadkowa Góra,50.3833,21.3167,890
Wiśniowo Ełckie,53.7556,22.5264,890
Biskupice,51.1333,22.95,890
Biskupice,49.9597,20.1244,890
Stoczek,52.55,21.9167,890
Lipnica Murowana,49.8578,20.5292,890
Stary Lubosz,52.0758,16.7103,890
Maków,51.3453,21.2531,890
Pakosław,51.6167,17.05,890
Kornowac,50.0667,18.3167,890
Wiktorówko,53.2686,17.2014,890
Oksa,50.7286,20.1006,890
Mętów,51.1478,22.5953,890
Gołkowice Dolne,49.5456,20.5781,890
Kruszewo,52.9719,16.66,889
Kojszówka,49.7167,19.7333,889
Bycina,50.3833,18.5167,888
Lewniowa,49.8833,20.6333,888
Słowik,50.7333,19.1667,886
Adamowo,52.1042,16.1425,885
Bobrowice,51.9536,15.0847,884
Białopole,50.9831,23.7344,883
Adamów,51.0258,21.1567,883
Harbutowice,49.7775,18.8071,883
Siedlnica,51.7667,16.3333,882
Kamienica Królewska,54.3931,17.8892,881
Łuszczów Pierwszy,51.3019,22.7272,881
Sońsk,52.7833,20.7167,881
Dąbrowa Zielona,50.8333,19.55,881
Tychów Stary,51.1236,21.0936,880
Konradów,50.2958,17.4017,880
Racławice,49.75,21.2,880
Komańcza,49.3528,22.075,880
Wielkie Oczy,50.0228,23.1622,880
Kaliszkowice Ołobockie,51.5492,18.0514,880
Kliszów,50.3883,21.3883,880
Niekłań Wielki,51.1797,20.6261,880
Bachów,49.8,22.5,880
Ligota Prószkowska,50.5667,17.8333,880
Sokołowsko,50.6864,16.2353,880
Korczyn,50.9278,20.3339,880
Ostromecko,53.15,18.2167,880
Koczargi Stare,52.2656,20.7953,879
Dąbrowica,50.5425,22.6583,877
Racławiczki,50.4667,17.7833,876
Rasselwitz,50.4667,17.7833,876
Jarczów,50.4167,23.6,876
Brzeźnica,51.7156,15.3911,875
Ściejowice,50.0,19.7833,875
Brudzice,51.1667,19.3333,874
Jasienie,50.9,18.2167,873
Złotniki,50.3167,21.4,873
Gorzków,49.9167,20.0333,872
Obora,51.4183,16.1381,872
Zawada,50.9367,19.4247,872
Wielgomłyny,51.0125,19.7633,870
Kamień,51.0942,23.5831,870
Brzechów,50.8272,20.7883,870
Pruszcz,53.4489,17.8275,870
Żarnów,51.2472,20.1706,870
Sobków,50.6975,20.4542,870
Jasieniec Iłżecki Górny,51.1194,21.1778,870
Jasionka,51.6667,22.9333,870
Nowa Wieś,49.9456,21.8381,870
Skrzelczyce,50.7153,20.7181,870
Oblęgór,50.9553,20.4667,870
Złotnik,51.6869,15.1919,870
Skroniów,50.6281,20.2614,870
Świecie nad Osą,53.4442,19.1031,870
Wierzchosławice,50.9,16.1,870
Wiśniowa,50.0,21.75,870
Łęczyca,52.3,16.8667,870
Nochowo,52.0667,16.9833,870
Garbas,54.1833,22.7333,865
Bucz,52.0,16.4,865
Psary,51.65,18.0333,865
Babice,50.1381,18.2992,864
Zasów,50.1308,21.3422,864
Łapy-Dębowina,52.9717,22.9011,864
Lipowiec,53.4667,21.1333,863
Dobrzewino,54.4544,18.39,863
Rudnik Wielki,50.65,19.0833,862
Krzeszów,50.4039,22.3411,862
Harasiuki,50.4833,22.4833,862
Żarnowiec,54.7872,18.0878,861
Obsza,50.3167,22.9667,861
Toporowice,50.4167,19.1333,861
Koniec,50.7978,23.2842,860
Korytnica,50.6569,20.5167,860
Korytnica,52.4167,21.85,860
Leszczawa Dolna,49.6553,22.4406,860
Robakowo,52.3167,17.0667,860
Rybno,52.6108,17.2875,860
Jadowniki Mokre,50.1283,20.7683,860
Rudka,50.225,22.6317,860
Bobrowniki,54.5256,17.3358,860
Wtelno,53.2411,17.9,860
Przygórze,50.6167,16.5667,860
Tyrowo,53.6833,19.9,860
Radzanowo,52.5833,19.9,860
Jasionówka,53.4,23.0333,860
Działyń,53.0167,19.05,860
Dąbrowica,50.3167,21.1167,860
Ostrowiec,54.2761,16.6703,860
Tymowa,51.4525,16.3475,860
Lipków,52.2667,20.8,860
Szynkielów,51.3511,18.7575,860
Siedliszcze,51.2894,23.6403,860
Siedlec Duży,50.6333,19.1167,860
Sławsko,54.3953,16.7111,860
Dopiewiec,52.3667,16.7167,860
Wójcice,50.4625,17.2122,860
Zagorzyn,49.5778,20.4075,860
Świerczyna,51.9214,16.7603,860
Juszkowo,54.2556,18.6075,860
Kalsk,52.1167,15.6,860
Moszczenica Niżna,49.5461,20.6192,860
Suskowola,51.4667,21.4833,860
Kotwasice,51.9667,18.3667,859
Bładnice,49.7785,18.7794,859
Cykarzew Północny,50.95,19.15,859
Skarbiszów,50.7333,17.7667,859
Bartąg,53.7167,20.4667,858
Duchnice,52.1944,20.7986,858
Rogoźnica,51.0097,16.2914,856
Nowe Kramsko,52.1333,15.7667,854
Jeziorzany,49.9944,19.7758,853
Stok Lacki-Folwark,52.1619,22.3453,853
Koty,50.5511,18.6994,852
Konin,50.8667,19.2667,851
Torki,49.8333,22.9333,851
Żalno,53.6,17.7667,851
Rudnik,50.1286,18.1836,850
Borki,50.3178,21.1411,850
Burzec,51.7833,22.2667,850
Przewóz,51.4778,14.95,850
Psary,51.1847,17.0314,850
Struga,50.8244,16.2283,850
Kopojno,52.1667,17.9667,850
Zbiczno,53.3344,19.3756,850
Czermno,51.1111,20.025,850
Michałówka,51.6286,22.9567,850
Bobrowniki Małe,50.05,20.9,850
Bogdanowice,50.1647,17.8289,850
Lipinki,52.3719,21.29,850
Henryków Lubański,51.1667,15.2667,850
Klępczewo,53.7864,15.705,850
Kłocko,51.57,18.6736,850
Stronno,53.2833,18.0667,850
Owsiszcze,49.9833,18.2333,850
Żupawa,50.5833,21.7833,850
Zalesie,50.15,22.1667,850
Złotniki,50.7506,20.2508,850
Świerczyna,53.4408,16.2744,850
Posada Jaśliska,49.4389,21.8186,850
Rychwałdek,49.6833,19.2667,849
Chrośla,52.1833,21.4667,849
Rębielice Królewskie,51.0,18.8667,848
Wylewa,50.2,22.6333,846
Żarska Wieś,51.1939,15.1042,846
Poręby Dymarskie,50.3217,21.8064,845
Kosowy,50.2667,21.6333,844
Skrzydlów,50.85,19.35,844
Przezchlebie,50.3667,18.6833,843
Turze,54.0944,18.6303,843
Wyszyna,52.0667,18.4,843
Wyczechy,53.6889,17.0389,842
Kurza Góra,52.0769,16.6625,842
Horodyszcze,51.755,23.1842,841
Grzędzice,53.3667,14.9667,841
Zbójno,53.0058,19.1539,841
Potępa,50.5658,18.6617,841
Nowa Wieś,50.5233,18.2869,840
Kobylany,50.7642,21.3436,840
Konopnica,51.3539,18.8233,840
Rogoźnik,49.444,19.937,840
Rybczewice,51.0292,22.8503,840
Baczyn,49.7889,19.7242,840
Brzuśnik,49.6333,19.1833,840
Piece,53.8872,18.2139,840
Prostyń,52.6667,21.9833,840
Chamsk,53.0333,19.9333,840
Działyń,52.5942,17.4911,840
Dąbrówka,49.8167,19.6,840
Długołęka,53.2667,22.7833,840
Irządze,50.6264,19.6853,840
Orle,54.0539,18.2114,840
Tanowo,53.55,14.4667,840
Nacpolsk,52.5133,20.2569,840
Stara Wieś,49.6369,20.8847,840
Gończyce,51.7833,21.7333,840
Drewnica,54.2869,18.9619,840
Wróblik Królewski,49.6167,21.8667,840
Sterkowiec,49.9833,20.6667,840
Ogrodzona,49.7705,18.7258,838
Miłocice,50.2319,20.0353,837
Bukowiec,52.5483,15.6886,835
Zabłędza,49.9333,21.0667,834
Krzemlin,53.0667,14.8667,833
Stare Koźle,50.3125,18.2236,832
Kwirynów,52.25,20.85,832
Gorzędów,51.2097,19.5475,832
Koszyce,50.1703,20.5731,830
Kostomłoty,51.05,16.6167,830
Rzeczyca Księża,50.8667,22.2167,830
Zelczyna,49.9602,19.7488,830
Babin,51.1833,22.2833,830
Bojanów,50.0167,18.15,830
Buszkowice,49.8033,22.8033,830
Żarnowiec,50.4844,19.8631,830
Przybówka,49.7903,21.6447,830
Brynica,50.9044,20.5039,830
Cedzyna,50.8642,20.7122,830
Szlachta,53.7689,18.1144,830
Jaćmierz,49.6167,22.0167,830
Wysokienice,51.8,20.1333,830
Długie,53.1167,19.3333,830
Nowy Dwór,53.6333,23.55,830
Osieczna,53.7714,18.205,830
Krzykawka,50.2833,19.5667,830
Nowa Wieś Ujska,53.0331,16.7489,830
Dąbrowa,49.6808,20.6772,830
Dąbrówka-Ług,52.1122,22.1486,830
"Florczaki (Eckersdorf, for German visitors)",53.85,20.0333,830
Mucharz,49.8167,19.55,830
Chodów,52.25,19.0167,830
Szestno,53.9333,21.3,830
Wilczyce,50.7472,21.6561,830
Wolica,49.7228,21.5136,830
Pęczniew,51.8,18.7333,830
Niekłań Mały,51.1692,20.6178,830
Polańczyk,49.3694,22.4197,830
Stolno,53.3217,18.5061,830
Budowo,54.3219,17.3928,829
Kamieniec,50.4033,18.7139,829
Proszków,51.1644,16.5328,827
Faliszówka,49.6333,21.6,825
Nietulisko Duże,50.9808,21.2475,825
Biskupice,50.7,19.2833,824
Żabia Wola,51.1202,22.5146,824
Pławniowice,50.3833,18.4667,824
Goszczanów,51.7892,18.5047,824
Ruda Łańcucka,50.3219,22.3472,823
Biała Dolna,50.8714,19.0575,823
Lubecko,50.6833,18.6333,822
Tychów Nowy,51.1408,21.1,820
Kiełpin,53.6242,17.8825,820
Kozłówka,51.4494,22.4958,820
Książ Wielki,50.4422,20.1403,820
Gabryelin,51.9667,21.0667,820
Wyszyny,52.8833,16.85,820
Bychlew,51.6333,19.35,820
Brzezie,50.1167,19.8333,820
Borzytuchom,54.2006,17.3681,820
Dębno,52.2833,16.7167,820
Gralewo,52.75,15.3833,820
Jastrzębia,51.5,21.25,820
Jarnołtówek,50.2847,17.4247,820
Kondratowice,50.7739,16.9353,820
Olszewo-Borki,53.0667,21.5167,820
Bakałarzewo,54.0878,22.6431,820
Woryty,53.7558,20.205,820
Chlina,50.45,19.8333,820
Stadniki,49.885,20.1583,820
Wojnowo,53.21,17.8383,820
Wolica,51.7078,18.1442,820
Górki Małe,49.7562,18.8685,819
Gliczarów Górny,49.35,20.05,818
Skrbeńsko,49.9067,18.5278,817
Studzienice,54.1,17.5667,816
Gozdów,50.7719,23.8108,816
Zawada Książęca,50.1542,18.2581,816
Chotków,51.7,15.4667,815
Sterdyń,52.5667,22.2833,814
Kąpino,54.63,18.2544,814
Siedliszcze,51.1944,23.1639,813
Brunary,49.55,21.0333,813
Blizne Łaszczyńskiego,52.2444,20.8856,813
Wielopole,49.6617,20.6958,813
Bieżeń,50.8,18.8833,812
Aleksandria Druga,50.7364,18.935,812
Platerów,52.3,22.8167,812
Szarlejka,50.8333,19.0167,812
Ugniewo,52.8,21.9667,810
Mokra Lewa,51.9736,20.0875,810
Wola Morawicka,50.7367,20.6331,810
Bielice,53.4872,19.3844,810
Brzeźno,52.9,16.6167,810
Psarskie,52.1,17.0,810
Szreniawa,52.3167,16.8,810
Mokre,50.6925,23.2047,810
Puzdrowo,54.3333,17.85,810
Ceranów,52.6333,22.2333,810
Niezabyszewo,54.1353,17.4267,810
Bondyrz,50.5667,23.1,810
Długie Stare,51.8333,16.45,810
Gołkowice Górne,49.5367,20.5767,810
Lubanie,52.7481,18.9197,810
Łukowa,50.725,20.5383,810
Karpniki,50.85,15.85,810
Modlniczka,50.1167,19.85,810
Nowa Wieś,50.4333,19.0833,809
Kołodziejewo,52.7,18.0167,808
Kaski,52.1833,20.4333,807
Toporów,52.25,15.25,807
Kołątajew,51.6856,17.8589,807
Kolonia,54.3969,18.1128,806
Kusowo,54.4336,17.0847,806
Czarlin,54.0483,18.7608,806
Kluczewsko,50.9272,19.9211,806
Rychliki,53.985,19.5281,805
Gocław,52.01,21.5547,805
Szare,49.55,19.0333,805
Mszanka,49.6833,21.0833,805
Nieżychowice,53.6725,17.5272,805
Słotwina,49.6994,19.0753,804
Kozodrza,50.1,21.6,804
Godzikowice,50.9086,17.3133,804
Gardna Wielka,54.6375,17.1658,803
Jabłowo,53.9258,18.5764,803
Pawłowo,53.6825,17.6417,803
Majdan Łętowski,50.3344,22.2639,803
Podsarnie,49.5667,19.8,803
Brzustowiec,51.44,20.4581,802
Koźliny,54.1592,18.8036,801
Garcz,54.3453,18.1064,801
Złatna,49.4833,19.1667,801
Leszno,52.9833,20.9167,800
Radoszki,53.2572,19.6369,800
Rudzienko,52.1069,21.4919,800
Frednowy,53.6667,19.7,800
Runowo Krajeńskie,53.3333,17.45,800
Rzęczkowo,53.1289,18.3669,800
Węgry,50.7431,18.0189,800
Polichno,50.8175,20.3992,800
Przylesie,50.7917,17.3911,800
Tchórzew-Kolonia,51.6689,22.5336,800
Trybsz,49.4167,20.15,800
Mokronos,51.8,17.3333,800
Niwy,50.7844,20.8236,800
Mierzeszyn,54.2022,18.4169,800
Mikluszowice,50.05,20.45,800
Świętoniowa,50.1,22.4333,800
Bóbrka,49.6328,21.6986,800
Dobrocin,50.7317,16.7017,800
Dobromierz,50.9111,16.2386,800
Dobrzyca,54.1894,15.9144,800
Belsk Duży,51.8333,20.8167,800
Marszowice,49.9164,20.2408,800
Czepielowice,50.8667,17.5667,800
Czerwin,52.9464,21.7611,800
Urszulin,51.3942,23.1844,800
Stara Łomnica,50.3511,16.5914,800
Dębno,49.4667,20.2083,800
Grabowo,53.45,22.15,800
Gózd,51.3697,21.4242,800
Nowodwór,51.4214,22.5814,800
Ocice,51.2022,15.4886,800
Jankowice,49.95,22.6667,800
Kosorowice,50.5833,18.05,800
Zasole,49.9569,19.1911,800
Nowe Opole,52.1803,22.1819,800
Barłożno,53.7864,18.6128,800
Dworszowice Pakoszowe,51.1667,19.1,800
Dzietrzychowice,51.65,15.3667,800
Rzeczyca Długa,50.6333,22.0667,800
Zabieżki,52.0167,21.4833,800
Lubiszyn,52.7667,14.9333,800
Magnuszew,51.75,21.3833,800
Siemoń,53.1667,18.4,800
Szwecja,53.3481,16.5733,800
Słopiec,50.7744,20.7839,800
Zieluń,53.1833,19.85,800
Łapsze Wyżne,49.4,20.2,800
Wójcin,52.5182,18.1832,800
Łąkociny,51.6583,17.6672,800
Kobiele Wielkie,51.0336,19.6236,800
Trepcza,49.5833,22.2,800
Witobel,52.2667,16.7,800
Mroczków Gościnny,51.3833,20.4167,800
Niestachów,50.8375,20.7492,800
Pieniążkowice,49.5167,19.9,800
Pisarowce,49.5667,22.1,800
Postękalice,51.3667,19.4833,800
Wola Książęca,51.9667,17.5833,800
Stacewicze,52.8333,23.0667,800
Rataje,52.9986,16.9478,799
Baby,51.5333,19.7167,799
Osiny,50.6833,19.1833,799
Siedlanka,50.2592,21.6744,798
Chorzemin,52.15,16.1167,798
Czerniczyn,50.7544,23.8994,797
Gnieździska,50.8683,20.2822,797
Złotowo,53.7942,18.0017,797
Mokra,50.9667,18.9167,796
Preczów,50.3667,19.1833,796
Smolno,54.6683,18.4097,796
Łubie,50.44,18.6522,796
Płonki,51.3833,22.2,795
Soborzyce,50.85,19.6,795
Cieśle,50.8419,20.2028,795
Inowłódz,51.5269,20.2214,795
Załuże,50.1967,23.1581,794
Kosobudy,53.875,17.7575,793
Słodków Pierwszy,50.9,22.2667,793
Nowa Karczma,54.1333,18.2025,792
Napiwoda,53.4,20.4833,792
Strzelce,53.0175,16.9606,791
Trachy,50.25,18.5,791
Dobrzeń,51.25,17.2833,791
Karolew,51.9111,17.2422,790
Rudyszwałd,49.95,18.2833,790
Tarłów,51.0019,21.7144,790
Brzyskorzystewko,52.8925,17.6919,790
Piotrków Pierwszy,51.0422,22.6447,790
Skuszew,52.5833,21.4833,790
Lądek,52.2167,17.9333,790
Dąbrówka,53.5772,17.62,790
Janki,52.1289,20.8986,790
Kwieciszewo,52.6189,18.0383,790
Kęsowo,53.5586,17.7131,790
Nowe Żalno,53.6236,17.7903,790
Chudoba,50.85,18.2833,790
Chwiram,53.2333,16.4667,790
Hanna,51.7167,23.5,790
Lubostroń,52.9,17.8833,790
Żółkiewka,50.9111,22.8342,790
Wieniec,52.6494,18.9308,790
Wilków,50.9125,20.8467,790
Włodowice,50.5733,16.4744,790
Mokre Łany,50.5103,18.3019,790
Ryszkowa Wola,50.0667,22.8667,789
Darżlubie,54.7033,18.3231,788
Łapalice,54.3461,18.1289,787
Płoty,51.9889,15.4128,786
Poczesna,50.7,19.1167,786
Kostrza,50.985,16.2664,785
Wola Różaniecka,50.3333,22.7667,784
Radzimów,51.05,15.1167,784
Paczółtowice,50.1833,19.6833,784
Tereszewo,53.3833,19.4667,783
Lubaszowa,49.8667,21.0333,783
Kleszczów,50.3333,18.5167,781
Zawierzbie,50.0772,21.3817,781
Przysiersk,53.4292,18.3069,780
Kobylany,50.1475,19.7581,780
Lack,51.65,23.45,780
Elżbietowo,54.3478,18.3264,780
Rychłocice,51.3833,18.8167,780
Wąsewo,52.8833,21.6667,780
Pawłów,51.2667,20.8333,780
Strzyżew,51.9203,22.5094,780
Wszachów,50.7614,21.1669,780
Bukowiec,54.2894,20.4014,780
Czekanów,51.6778,17.8653,780
Santok,52.7333,15.4167,780
Lubieszewo,54.19,19.0389,780
Maków,50.1083,18.0836,780
Głowaczów,51.6167,21.3167,780
Jabłonka,53.5,20.5667,780
Jeziorzany,51.6022,22.2769,780
Osiny,51.1897,21.0925,780
Ostrówki,51.8231,22.8083,780
Koźla,51.8667,15.3,780
Legnickie Pole,51.15,16.25,780
Olbrachtów,51.5833,15.0833,780
Narewka,52.8361,23.7575,780
Gorzejowa,49.9333,21.4,780
Złotogłowice,50.5,17.3833,780
Łączna,50.9928,20.7889,780
Kamień Wielki,52.6667,14.7833,780
Miłoszów,51.0044,15.25,780
Podchojny,50.6581,20.3361,780
Posadowa Mogilska,49.6544,20.8461,780
Budzistowo,54.1608,15.5819,779
Ogorzeliny,53.6028,17.5567,779
Las,49.7333,19.4167,776
Borowo,54.3189,18.2883,776
Brzeźno Lęborskie,54.6239,17.8317,776
Kalna,49.7094,19.1089,775
Wojcieszyn,52.2564,20.7667,775
Olszyna,50.7167,18.8833,773
Przymiłowice,50.75,19.3,772
Kamionna,49.81,20.3669,770
Różyca,51.7333,19.7833,770
Piotrków Drugi,51.06,22.625,770
Żakowice,53.6753,19.2339,770
Tropiszów,50.1067,20.2014,770
Uzdowo,53.3333,20.1,770
Jeleniów,50.8453,21.1108,770
Kołczewo,53.95,14.6,770
Królik Polski,49.5156,21.8208,770
Trzebień,51.3875,15.5978,770
Szaniec,50.5167,20.6833,770
Zerbuń,53.9356,20.8467,770
Ciepielów,51.25,21.5833,770
Seroczyn,52.01,21.92,770
Goliszów,51.2783,15.9781,770
Góra Siewierska,50.4014,19.0822,770
Magnuszewice,51.9333,17.6,770
Sielnica,49.8,22.3167,770
Dobrowo,53.9833,16.1167,770
Łosie,49.5833,21.1,770
Piaski Brzóstowskie,50.9072,21.4944,770
Sorkwity,53.845,21.1431,770
Szymankowo,54.0731,18.9231,768
Siemianice,51.1794,18.1422,768
Złotoria,53.1772,22.9347,767
Strzepcz,54.45,18.0333,766
Tereszpol-Zygmunty,50.5633,22.9111,766
Ruszkowo,53.3833,20.1167,765
Biczyce Dolne,49.6308,20.645,765
Wipsowo,53.9,20.8,764
Wiślica,49.8222,18.7812,764
Maszewo Lęborskie,54.4708,17.735,764
Marcinkowo,53.8592,21.2706,764
Bielkówko,54.2619,18.5069,763
Orpelów,51.6333,19.2167,763
Nowe Dolno,54.0294,19.4403,763
Brzesko,53.125,15.0111,762
Ujrzanów,52.1333,22.3167,762
Zębowo,52.4836,16.0558,761
Korczew,52.3539,22.6128,760
Kostomłoty,51.9756,23.6581,760
Leszczyna,49.8597,20.3947,760
Jabłonna Druga,51.0831,22.5647,760
Manowo,54.1333,16.2833,760
Wojska,50.4833,18.65,760
Ławsk,53.4833,22.2833,760
Ławszowa,51.3833,15.4167,760
Cegielnia,52.4,21.1606,760
Konin Żagański,51.5447,15.1931,760
Smolno Wielkie,52.0703,15.7731,760
Lipinki,53.4667,19.3167,760
Nur,52.6667,22.3,760
Lisnowo,53.4658,19.1633,760
Turew,52.0667,16.8333,760
Żyrowa,50.45,18.1167,760
Struża-Kolonia,51.15,22.9333,760
Chorkówka,49.65,21.6833,760
Szczawnik,49.3833,20.8667,760
Telaki,52.5667,22.1667,760
Mołtajny,54.2833,21.35,760
Lipowe,49.7097,20.3878,758
Tychnowy,53.7803,18.9583,757
Bytonia,53.9183,18.2786,756
Raciąż,53.6633,17.785,756
Sobieszyn,51.6,22.1667,756
Roztropice,49.8388,18.8583,755
Kamienica Szlachecka,54.2689,17.9481,755
Gołubie,54.2119,18.0264,755
Majdan Nepryski,50.5,23.0833,755
Pilszcz,50.0,17.92,755
Międzyrzecze,50.0222,19.0656,754
Dorohucza,51.1667,23.0167,753
Zalesie,52.9833,17.6,753
Poręba Radlna,49.95,21.0,752
Chwałkowo Kościelne,52.0167,17.3,752
Skowieszyn,51.3903,22.0294,751
Swarzów,50.2,20.95,751
Kalinowo,53.8736,22.6717,750
Kluki,51.35,19.2333,750
Kosakowo,54.5894,18.4817,750
Makoszyn,50.8069,20.9703,750
Ryńsk,53.2333,18.8333,750
Rzetnia,51.35,17.9333,750
Wywła,50.6131,19.9219,750
Baranówka,50.1319,20.0586,750
Bielawy,51.7667,15.9333,750
Burgrabice,50.3333,17.3167,750
Bystrzejowice A,51.1586,22.7594,750
Bystrzejowice B,51.1564,22.7578,750
Pniewo,53.1033,22.2019,750
Szydłowo,53.1622,16.6167,750
Jaworznik,50.6,19.4167,750
Lutowiska,49.2511,22.6958,750
Zdziechowa,52.5833,17.5667,750
Przeczyca,49.9,21.3667,750
Brody,52.4333,16.3,750
Brody,52.0667,15.4333,750
Brzezowa,49.85,20.0667,750
Nowa Brzeźnica,51.0667,19.1667,750
Wopławki,54.0892,21.4136,750
Nieciecza,50.15,20.85,750
Maciejowice,50.5008,17.1361,750
Jankowice Wielkie,50.7667,17.4333,750
Jaworowa,52.145,20.9519,750
Janowo,53.15,19.5833,750
Nowa Wieś,52.0125,16.2161,750
Olszyny,50.0525,19.4508,750
Ołobok,51.6342,18.0672,750
Kozubszczyzna,51.2167,22.4167,750
Alfredówka,50.4667,21.75,750
Obidowa,49.5494,20.0236,750
Dąbrówka Wisłocka,50.1667,21.3333,750
Dębowa Łąka,53.2667,19.1,750
Ellguth Turawa,50.8,18.1833,750
Ligota Turawska,50.8,18.1833,750
Łysa Góra,49.5756,21.5706,750
Cigacice,52.0333,15.6167,750
Sobin,51.4747,16.0275,750
Graboszyce,49.95,19.45,750
Smogóry,52.4333,15.0,750
Skidziń,49.9833,19.2,750
Dobrzeń Mały,50.75,17.8667,750
Korchów Pierwszy,50.3775,22.7825,750
Pińczata,52.6033,19.0806,750
Modrze,52.2167,16.6333,750
Mrowino,52.5156,16.7019,750
Stare Załubice,52.4811,21.1211,749
Zawadka,49.8522,19.4675,748
Ptakowice,50.4167,18.7833,748
Parzyce,51.2333,15.3833,747
Lipnica,53.9961,17.4067,747
Koszary,49.7428,20.3708,746
Zasole Bielańskie,49.9167,19.1667,746
Radzięcin,50.6858,22.7028,746
Stary Majdan,50.4719,22.6989,746
Szelejewo Drugie,51.8606,17.1614,746
Węsiory,54.2311,17.8433,745
Szydłówek,51.25,20.9,744
Trzebielino,54.2006,17.0875,744
Zabiele,53.3833,21.85,744
Brzozowa,49.8333,20.8667,743
Kotlarnia,50.2667,18.3667,743
Zalipie,50.25,20.85,743
Stróża,50.9,22.2667,742
Nicponia,53.8236,18.8186,742
Jankowice,50.0431,19.4406,742
Studzieniec,51.8031,15.575,741
Dobra,50.4511,17.9003,741
Dobrau,50.4511,17.9003,741
Garbno,54.1333,21.2833,741
Okrajnik,49.7333,19.2667,741
Konopnica,51.2267,22.2914,740
Bałtów,51.0167,21.55,740
Borowa,50.0833,21.2833,740
Brzyna,49.5333,20.5,740
Pagorzyna,49.6892,21.3333,740
Pęperzyn,53.3,17.55,740
Iwla,49.5544,21.6239,740
Szczecno,50.7306,20.7764,740
Bobrowniki Wielkie,50.0667,20.9167,740
Lubno,52.7333,15.0167,740
Góra,52.4333,20.7833,740
Odolion,52.8667,18.75,740
Ugoszcz,54.1225,17.5281,740
Sulimierz,52.9675,15.0122,740
Charlęż,51.3333,22.7167,740
Cieplice,50.2539,22.6156,740
Grzymiszew,52.0333,18.3667,740
Kierz Niedźwiedzi,51.1747,20.945,740
Krowica Sama,50.0833,23.2167,738
Kościeliska,50.9833,18.5,737
Kostellitz,50.9833,18.5,737
Książnice,49.95,20.3167,736
Chrząchów,51.4167,22.1167,736
Borzechowo,53.8875,18.3492,735
Słupy,53.8416,20.5331,734
